{
"type": "FeatureCollection",
"crs": { "type": "name", "properties": { "name": "urn:ogc:def:crs:OGC:1.3:CRS84" } },
"features": [
{ "type": "Feature", "properties": { "county": "Jefferson", "GMcoordinates 1": -77.7563009, "GMcoordinates 2": 39.3225089, "name": "Harpers Ferry Middle School", "address": "1710 West Washington Street", "city": "Harpers Ferry", "joinedAddress": "1710 West Washington Street , Harpers Ferry, WV, 25425", "zip": 25425 }, "geometry": { "type": "Point", "coordinates": [ -77.7563009, 39.3225089 ] } },
{ "type": "Feature", "properties": { "county": "Jefferson", "GMcoordinates 1": -77.780159, "GMcoordinates 2": 39.318272, "name": "C. W. Shipley Elementary School", "address": "652 Shipley School Road", "city": "Harpers Ferry", "joinedAddress": "652 Shipley School Road , Harpers Ferry, WV, 25425", "zip": 25425 }, "geometry": { "type": "Point", "coordinates": [ -77.780159, 39.318272 ] } },
{ "type": "Feature", "properties": { "county": "Jefferson", "GMcoordinates 1": -77.784761, "GMcoordinates 2": 39.2428641, "name": "Blue Ridge Primary", "address": "175 Lowery Lane", "city": "Harpers Ferry", "joinedAddress": "175 Lowery Lane , Harpers Ferry, WV, 25425", "zip": 25425 }, "geometry": { "type": "Point", "coordinates": [ -77.784761, 39.2428641 ] } },
{ "type": "Feature", "properties": { "county": "Jefferson", "GMcoordinates 1": -77.7856879, "GMcoordinates 2": 39.24225, "name": "Blue Ridge Elementary School", "address": "18866 Charles Town Road", "city": "Harpers Ferry", "joinedAddress": "18866 Charles Town Road , Harpers Ferry, WV, 25425", "zip": 25425 }, "geometry": { "type": "Point", "coordinates": [ -77.7856879, 39.24225 ] } },
{ "type": "Feature", "properties": { "county": "Jefferson", "GMcoordinates 1": -77.808409, "GMcoordinates 2": 39.426181, "name": "Shepherdstown Elementary School", "address": "662 South Church Street", "city": "Shepherdstown", "joinedAddress": "662 South Church Street , Shepherdstown, WV, 25443", "zip": 25443 }, "geometry": { "type": "Point", "coordinates": [ -77.808409, 39.426181 ] } },
{ "type": "Feature", "properties": { "county": "Jefferson", "GMcoordinates 1": -77.8114426, "GMcoordinates 2": 39.4271079, "name": "Shepherdstown Middle School", "address": "54 Minden Avenue", "city": "Shepherdstown", "joinedAddress": "54 Minden Avenue , Shepherdstown, WV, 25443", "zip": 25443 }, "geometry": { "type": "Point", "coordinates": [ -77.8114426, 39.4271079 ] } },
{ "type": "Feature", "properties": { "county": "Jefferson", "GMcoordinates 1": -77.8210996, "GMcoordinates 2": 39.3377069, "name": "Driswood Elementary School", "address": "75 Caspian Way", "city": "Shenandoah Junction", "joinedAddress": "75 Caspian Way , Shenandoah Junction, WV, 25442", "zip": 25442 }, "geometry": { "type": "Point", "coordinates": [ -77.8210996, 39.3377069 ] } },
{ "type": "Feature", "properties": { "county": "Jefferson", "GMcoordinates 1": -77.833176, "GMcoordinates 2": 39.3524601, "name": "Jefferson High School", "address": "4141 Flowing Springs Road", "city": "Shenandoah Junction", "joinedAddress": "4141 Flowing Springs Road , Shenandoah Junction, WV, 25442", "zip": 25442 }, "geometry": { "type": "Point", "coordinates": [ -77.833176, 39.352460099999988 ] } },
{ "type": "Feature", "properties": { "county": "Jefferson", "GMcoordinates 1": -77.833491, "GMcoordinates 2": 39.356507, "name": "Wildwood Middle School", "address": "1209 Shenandoah Junction Road", "city": "Shenandoah Junction", "joinedAddress": "1209 Shenandoah Junction Road , Shenandoah Junction, WV, 25442", "zip": 25442 }, "geometry": { "type": "Point", "coordinates": [ -77.833491, 39.356507 ] } },
{ "type": "Feature", "properties": { "county": "Jefferson", "GMcoordinates 1": -77.848365, "GMcoordinates 2": 39.278019, "name": "Charles Town Middle School", "address": "193 High Street", "city": "Charles Town", "joinedAddress": "193 High Street , Charles Town, WV, 25414", "zip": 25414 }, "geometry": { "type": "Point", "coordinates": [ -77.848365, 39.278019 ] } },
{ "type": "Feature", "properties": { "county": "Jefferson", "GMcoordinates 1": -77.8530826, "GMcoordinates 2": 39.3565361, "name": "T A Lowery Elementary School", "address": "103 Shenandoah Junction Road", "city": "Shenandoah Junction", "joinedAddress": "103 Shenandoah Junction Road , Shenandoah Junction, WV, 25442", "zip": 25442 }, "geometry": { "type": "Point", "coordinates": [ -77.8530826, 39.3565361 ] } },
{ "type": "Feature", "properties": { "county": "Berkeley", "GMcoordinates 1": -77.8598642, "GMcoordinates 2": 39.5869298, "name": "Marlowe Elementary School", "address": "9580 Williamsport Pike", "city": "Falling Waters", "joinedAddress": "9580 Williamsport Pike , Falling Waters, WV, 25419", "zip": 25419 }, "geometry": { "type": "Point", "coordinates": [ -77.8598642, 39.5869298 ] } },
{ "type": "Feature", "properties": { "county": "Jefferson", "GMcoordinates 1": -77.8611147, "GMcoordinates 2": 39.2871896, "name": "Wright Denny Intermediate School", "address": "209 West Congress Street", "city": "Charles Town", "joinedAddress": "209 West Congress Street , Charles Town, WV, 25414", "zip": 25414 }, "geometry": { "type": "Point", "coordinates": [ -77.8611147, 39.2871896 ] } },
{ "type": "Feature", "properties": { "county": "Jefferson", "GMcoordinates 1": -77.8616059, "GMcoordinates 2": 39.3031882, "name": "Ranson Elementary School", "address": "600 North Preston Street", "city": "Ranson", "joinedAddress": "600 North Preston Street , Ranson, WV, 25438", "zip": 25438 }, "geometry": { "type": "Point", "coordinates": [ -77.861605900000015, 39.3031882 ] } },
{ "type": "Feature", "properties": { "county": "Jefferson", "GMcoordinates 1": -77.8747308, "GMcoordinates 2": 39.2704147, "name": "Page Jackson Elementary", "address": "370 Page Jackson School Road", "city": "Charles Town", "joinedAddress": "370 Page Jackson School Road , Charles Town, WV, 25414", "zip": 25414 }, "geometry": { "type": "Point", "coordinates": [ -77.8747308, 39.2704147 ] } },
{ "type": "Feature", "properties": { "county": "Jefferson", "GMcoordinates 1": -77.8801323, "GMcoordinates 2": 39.259929, "name": "Washington High School", "address": "300 Washington Patriots Drive", "city": "Charles Town", "joinedAddress": "300 Washington Patriots Drive , Charles Town, WV, 25414", "zip": 25414 }, "geometry": { "type": "Point", "coordinates": [ -77.8801323, 39.259929 ] } },
{ "type": "Feature", "properties": { "county": "Jefferson", "GMcoordinates 1": -77.8814947, "GMcoordinates 2": 39.3680452, "name": "North Jefferson Elementary", "address": "6996 Charles Town Road", "city": "Kearneysville", "joinedAddress": "6996 Charles Town Road , Kearneysville, WV, 25430", "zip": 25430 }, "geometry": { "type": "Point", "coordinates": [ -77.8814947, 39.3680452 ] } },
{ "type": "Feature", "properties": { "county": "Berkeley", "GMcoordinates 1": -77.898354, "GMcoordinates 2": 39.538216, "name": "Spring Mills High School", "address": "499 Campus Drive", "city": "Martinsburg", "joinedAddress": "499 Campus Drive, Martinsburg, WV, 25404", "zip": 25404 }, "geometry": { "type": "Point", "coordinates": [ -77.898354, 39.538216 ] } },
{ "type": "Feature", "properties": { "county": "Berkeley", "GMcoordinates 1": -77.8989029, "GMcoordinates 2": 39.5374723, "name": "Spring Mills Primary", "address": "401 Campus Drive", "city": "Martinsburg", "joinedAddress": "401 Campus Drive , Martinsburg, WV, 25404", "zip": 25404 }, "geometry": { "type": "Point", "coordinates": [ -77.8989029, 39.5374723 ] } },
{ "type": "Feature", "properties": { "county": "Berkeley", "GMcoordinates 1": -77.9019254, "GMcoordinates 2": 39.5414585, "name": "Spring Mills Middle School", "address": "255 Campus Drive", "city": "Martinsburg", "joinedAddress": "255 Campus Drive , Martinsburg, WV, 25404", "zip": 25404 }, "geometry": { "type": "Point", "coordinates": [ -77.9019254, 39.5414585 ] } },
{ "type": "Feature", "properties": { "county": "Berkeley", "GMcoordinates 1": -77.9061217, "GMcoordinates 2": 39.5410241, "name": "Potomack Intermediate School", "address": "5308 Williamsport Pike", "city": "Martinsburg", "joinedAddress": "5308 Williamsport Pike , Martinsburg, WV, 25404", "zip": 25404 }, "geometry": { "type": "Point", "coordinates": [ -77.9061217, 39.5410241 ] } },
{ "type": "Feature", "properties": { "county": "Berkeley", "GMcoordinates 1": -77.9169688, "GMcoordinates 2": 39.5259578, "name": "Bedington Elementary School", "address": "149 Bedington Road", "city": "Martinsburg", "joinedAddress": "149 Bedington Road , Martinsburg, WV, 25404", "zip": 25404 }, "geometry": { "type": "Point", "coordinates": [ -77.9169688, 39.5259578 ] } },
{ "type": "Feature", "properties": { "county": "Jefferson", "GMcoordinates 1": -77.9307367, "GMcoordinates 2": 39.2540896, "name": "South Jefferson Elementary School", "address": "4599 Summit Point Road", "city": "Charles Town", "joinedAddress": "4599 Summit Point Road , Charles Town, WV, 25414", "zip": 25414 }, "geometry": { "type": "Point", "coordinates": [ -77.9307367, 39.2540896 ] } },
{ "type": "Feature", "properties": { "county": "Berkeley", "GMcoordinates 1": -77.94528, "GMcoordinates 2": 39.472123, "name": "Opequon Elementary School", "address": "395 East Road", "city": "Martinsburg", "joinedAddress": "395 East Road , Martinsburg, WV, 25404", "zip": 25404 }, "geometry": { "type": "Point", "coordinates": [ -77.94528, 39.472123 ] } },
{ "type": "Feature", "properties": { "county": "Berkeley", "GMcoordinates 1": -77.946926, "GMcoordinates 2": 39.481384, "name": "Eagle School Intermediate", "address": "730 Eagle School Road", "city": "Martinsburg", "joinedAddress": "730 Eagle School Road , Martinsburg, WV, 25404", "zip": 25404 }, "geometry": { "type": "Point", "coordinates": [ -77.946926, 39.481384 ] } },
{ "type": "Feature", "properties": { "county": "Berkeley", "GMcoordinates 1": -77.949767, "GMcoordinates 2": 39.471956, "name": "Martinsburg North Middle School", "address": "250 East Road", "city": "Martinsburg", "joinedAddress": "250 East Road , Martinsburg, WV, 25404", "zip": 25404 }, "geometry": { "type": "Point", "coordinates": [ -77.949767, 39.471956 ] } },
{ "type": "Feature", "properties": { "county": "Berkeley", "GMcoordinates 1": -77.965649, "GMcoordinates 2": 39.444722, "name": "Berkeley Heights Elementary School", "address": "726 Hack Wilson Way", "city": "Martinsburg", "joinedAddress": "726 Hack Wilson Way , Martinsburg, WV, 25401", "zip": 25401 }, "geometry": { "type": "Point", "coordinates": [ -77.965649, 39.444722 ] } },
{ "type": "Feature", "properties": { "county": "Berkeley", "GMcoordinates 1": -77.9680652, "GMcoordinates 2": 39.4585893, "name": "Burke Street Elementary School", "address": "422 West Burke Street", "city": "Martinsburg", "joinedAddress": "422 West Burke Street , Martinsburg, WV, 25401", "zip": 25401 }, "geometry": { "type": "Point", "coordinates": [ -77.9680652, 39.4585893 ] } },
{ "type": "Feature", "properties": { "county": "Berkeley", "GMcoordinates 1": -77.9684319, "GMcoordinates 2": 39.4480153, "name": "Martinsburg High School", "address": "701 South Queen Street", "city": "Martinsburg", "joinedAddress": "701 South Queen Street , Martinsburg, WV, 25401", "zip": 25401 }, "geometry": { "type": "Point", "coordinates": [ -77.9684319, 39.4480153 ] } },
{ "type": "Feature", "properties": { "county": "Berkeley", "GMcoordinates 1": -77.9690619, "GMcoordinates 2": 39.449668, "name": "Martinsburg South Middle School", "address": "150 Bulldog Boulevard", "city": "Martinsburg", "joinedAddress": "150 Bulldog Boulevard , Martinsburg, WV, 25401", "zip": 25401 }, "geometry": { "type": "Point", "coordinates": [ -77.9690619, 39.449668 ] } },
{ "type": "Feature", "properties": { "county": "Berkeley", "GMcoordinates 1": -77.9751616, "GMcoordinates 2": 39.47693, "name": "Tuscarora Elementary School", "address": "2000 Tavern Road", "city": "Martinsburg", "joinedAddress": "2000 Tavern Road , Martinsburg, WV, 25401", "zip": 25401 }, "geometry": { "type": "Point", "coordinates": [ -77.9751616, 39.47693 ] } },
{ "type": "Feature", "properties": { "county": "Berkeley", "GMcoordinates 1": -77.9756049, "GMcoordinates 2": 39.4522398, "name": "Winchester Avenue Elementary School", "address": "650 Winchester Avenue", "city": "Martinsburg", "joinedAddress": "650 Winchester Avenue , Martinsburg, WV, 25401", "zip": 25401 }, "geometry": { "type": "Point", "coordinates": [ -77.9756049, 39.4522398 ] } },
{ "type": "Feature", "properties": { "county": "Berkeley", "GMcoordinates 1": -77.9790623, "GMcoordinates 2": 39.5327798, "name": "James Rumsey Technical Institute", "address": "3274 Hedgesville Road", "city": "Martinsburg", "joinedAddress": "3274 Hedgesville Road , Martinsburg, WV, 25403", "zip": 25403 }, "geometry": { "type": "Point", "coordinates": [ -77.9790623, 39.5327798 ] } },
{ "type": "Feature", "properties": { "county": "Berkeley", "GMcoordinates 1": -77.981876, "GMcoordinates 2": 39.459074, "name": "Rosemont Elementary School", "address": "301 South Alabama Avenue", "city": "Martinsburg", "joinedAddress": "301 South Alabama Avenue , Martinsburg, WV, 25401", "zip": 25401 }, "geometry": { "type": "Point", "coordinates": [ -77.981876, 39.459074 ] } },
{ "type": "Feature", "properties": { "county": "Berkeley", "GMcoordinates 1": -77.982083, "GMcoordinates 2": 39.53749, "name": "Hedgesville High School", "address": "109 Ridge Road North", "city": "Hedgesville", "joinedAddress": "109 Ridge Road North , Hedgesville, WV, 25427", "zip": 25427 }, "geometry": { "type": "Point", "coordinates": [ -77.982083, 39.53749 ] } },
{ "type": "Feature", "properties": { "county": "Berkeley", "GMcoordinates 1": -77.9907273, "GMcoordinates 2": 39.5559444, "name": "Hedgesville Middle School", "address": "334 School House Drive", "city": "Hedgesville", "joinedAddress": "334 School House Drive , Hedgesville, WV, 25427", "zip": 25427 }, "geometry": { "type": "Point", "coordinates": [ -77.9907273, 39.5559444 ] } },
{ "type": "Feature", "properties": { "county": "Berkeley", "GMcoordinates 1": -77.9909057, "GMcoordinates 2": 39.5521408, "name": "Hedgesville Elementary School", "address": "88 School House Drive", "city": "Hedgesville", "joinedAddress": "88 School House Drive , Hedgesville, WV, 25427", "zip": 25427 }, "geometry": { "type": "Point", "coordinates": [ -77.9909057, 39.5521408 ] } },
{ "type": "Feature", "properties": { "county": "Berkeley", "GMcoordinates 1": -77.992766, "GMcoordinates 2": 39.407845, "name": "Pikeside Learning Center", "address": "3635 Winchester Ave", "city": "Martinsburg", "joinedAddress": "3635 Winchester Ave , Martinsburg, WV, 25405", "zip": 25405 }, "geometry": { "type": "Point", "coordinates": [ -77.992766, 39.407845 ] } },
{ "type": "Feature", "properties": { "county": "Berkeley", "GMcoordinates 1": -78.003641, "GMcoordinates 2": 39.454135, "name": "Orchard View Intermediate School", "address": "1455 Delmar Orchard Rd", "city": "Martinsburg", "joinedAddress": "1455 Delmar Orchard Rd , Martinsburg, WV, 25403", "zip": 25403 }, "geometry": { "type": "Point", "coordinates": [ -78.003641, 39.454135 ] } },
{ "type": "Feature", "properties": { "county": "Berkeley", "GMcoordinates 1": -78.013966, "GMcoordinates 2": 39.382314, "name": "Valley View Elementary School", "address": "140 Nadenbousch Lane", "city": "Martinsburg", "joinedAddress": "140 Nadenbousch Lane , Martinsburg, WV, 25405", "zip": 25405 }, "geometry": { "type": "Point", "coordinates": [ -78.013966, 39.382314 ] } },
{ "type": "Feature", "properties": { "county": "Berkeley", "GMcoordinates 1": -78.021008, "GMcoordinates 2": 39.553755, "name": "Tomahawk Intermediate School", "address": "6665 Hedgesville Road", "city": "Hedgesville", "joinedAddress": "6665 Hedgesville Road , Hedgesville, WV, 25427", "zip": 25427 }, "geometry": { "type": "Point", "coordinates": [ -78.021008, 39.553755 ] } },
{ "type": "Feature", "properties": { "county": "Berkeley", "GMcoordinates 1": -78.0394703, "GMcoordinates 2": 39.3587175, "name": "Inwood Primary School", "address": "7864 Winchester Ave", "city": "Inwood", "joinedAddress": "7864 Winchester Ave , Inwood, WV, 25428", "zip": 25428 }, "geometry": { "type": "Point", "coordinates": [ -78.0394703, 39.3587175 ] } },
{ "type": "Feature", "properties": { "county": "Berkeley", "GMcoordinates 1": -78.0414767, "GMcoordinates 2": 39.3518554, "name": "Musselman High School", "address": "126 Excellence Way", "city": "Inwood", "joinedAddress": "126 Excellence Way , Inwood, WV, 25428", "zip": 25428 }, "geometry": { "type": "Point", "coordinates": [ -78.0414767, 39.3518554 ] } },
{ "type": "Feature", "properties": { "county": "Berkeley", "GMcoordinates 1": -78.046363, "GMcoordinates 2": 39.3470439, "name": "Mill Creek Intermediate School", "address": "8785 Winchester Avenue", "city": "Bunker Hill", "joinedAddress": "8785 Winchester Avenue , Bunker Hill, WV, 25413", "zip": 25413 }, "geometry": { "type": "Point", "coordinates": [ -78.046363, 39.3470439 ] } },
{ "type": "Feature", "properties": { "county": "Berkeley", "GMcoordinates 1": -78.049437, "GMcoordinates 2": 39.347733, "name": "Musselman Middle School", "address": "105 Pride Avenue", "city": "Bunker Hill", "joinedAddress": "105 Pride Avenue , Bunker Hill, WV, 25413", "zip": 25413 }, "geometry": { "type": "Point", "coordinates": [ -78.049437, 39.347733 ] } },
{ "type": "Feature", "properties": { "county": "Berkeley", "GMcoordinates 1": -78.05763, "GMcoordinates 2": 39.321487, "name": "Bunker Hill Elementary School", "address": "58 Happy School Avenue", "city": "Bunker Hill", "joinedAddress": "58 Happy School Avenue , Bunker Hill, WV, 25413", "zip": 25413 }, "geometry": { "type": "Point", "coordinates": [ -78.05763, 39.321487 ] } },
{ "type": "Feature", "properties": { "county": "Berkeley", "GMcoordinates 1": -78.0795452, "GMcoordinates 2": 39.3680257, "name": "Mountain Ridge Intermediate", "address": "2691 Gerrardstown Road", "city": "Gerrardstown", "joinedAddress": "2691 Gerrardstown Road , Gerrardstown, WV, 25420", "zip": 25420 }, "geometry": { "type": "Point", "coordinates": [ -78.0795452, 39.3680257 ] } },
{ "type": "Feature", "properties": { "county": "Berkeley", "GMcoordinates 1": -78.0801529, "GMcoordinates 2": 39.3663866, "name": "Mountain Ridge Middle School", "address": "2771 Gerrardstown Road", "city": "Gerrardstown", "joinedAddress": "2771 Gerrardstown Road, Gerrardstown, WV, 25420", "zip": 25420 }, "geometry": { "type": "Point", "coordinates": [ -78.0801529, 39.3663866 ] } },
{ "type": "Feature", "properties": { "county": "Berkeley", "GMcoordinates 1": -78.093987, "GMcoordinates 2": 39.371881, "name": "Gerrardstown Elementary School", "address": "15 Dominion Road", "city": "Gerrardstown", "joinedAddress": "15 Dominion Road , Gerrardstown, WV, 25420", "zip": 25420 }, "geometry": { "type": "Point", "coordinates": [ -78.093987, 39.371881 ] } },
{ "type": "Feature", "properties": { "county": "Berkeley", "GMcoordinates 1": -78.148207, "GMcoordinates 2": 39.406958, "name": "Back Creek Valley Elementary School", "address": "1962 Back Creek Valley Road", "city": "Hedgesville", "joinedAddress": "1962 Back Creek Valley Road , Hedgesville, WV, 25427", "zip": 25427 }, "geometry": { "type": "Point", "coordinates": [ -78.148207, 39.406958 ] } },
{ "type": "Feature", "properties": { "county": "Hampshire", "GMcoordinates 1": -78.5263305, "GMcoordinates 2": 39.4281739, "name": "Slanesville Elementary School", "address": "P.o. Box 308", "city": "Slanesville", "joinedAddress": "P.o. Box 308 , Slanesville, WV, 25444", "zip": 25444 }, "geometry": { "type": "Point", "coordinates": [ -78.526330500000014, 39.4281739 ] } },
{ "type": "Feature", "properties": { "county": "Hampshire", "GMcoordinates 1": -78.6391041, "GMcoordinates 2": 39.2952408, "name": "Augusta Elementary School", "address": "Po Box 910", "city": "Augusta", "joinedAddress": "Po Box 910 , Augusta, WV, 26704", "zip": 26704 }, "geometry": { "type": "Point", "coordinates": [ -78.6391041, 39.295240799999988 ] } },
{ "type": "Feature", "properties": { "county": "Hampshire", "GMcoordinates 1": -78.746453, "GMcoordinates 2": 39.335391, "name": "Romney Middle School", "address": "Hc 63, Box 1975", "city": "Romney", "joinedAddress": "Hc 63, Box 1975 , Romney, WV, 26757", "zip": 26757 }, "geometry": { "type": "Point", "coordinates": [ -78.746453, 39.335391 ] } },
{ "type": "Feature", "properties": { "county": "Mineral", "GMcoordinates 1": -78.7561222, "GMcoordinates 2": 39.6167961, "name": "Wiley Ford Primary School", "address": "PO Box 20", "city": "Wiley Ford", "joinedAddress": "PO Box 20 , Wiley Ford, WV, 26767", "zip": 26767 }, "geometry": { "type": "Point", "coordinates": [ -78.7561222, 39.616796099999988 ] } },
{ "type": "Feature", "properties": { "county": "Mineral", "GMcoordinates 1": -78.7575424, "GMcoordinates 2": 39.508279, "name": "Frankfort Intermediate School", "address": "284 Intermediate Drive", "city": "Fort Ashby", "joinedAddress": "284 Intermediate Drive, Fort Ashby, WV, 26719", "zip": 26719 }, "geometry": { "type": "Point", "coordinates": [ -78.7575424, 39.508279 ] } },
{ "type": "Feature", "properties": { "county": "Mineral", "GMcoordinates 1": -78.7645086, "GMcoordinates 2": 39.5052093, "name": "Fort Ashby Primary School", "address": "44 Fort Ashby Primary School Road", "city": "Ft. Ashby", "joinedAddress": "44 Fort Ashby Primary School Road, Ft. Ashby, WV, 26719", "zip": 26719 }, "geometry": { "type": "Point", "coordinates": [ -78.7645086, 39.5052093 ] } },
{ "type": "Feature", "properties": { "county": "Hampshire", "GMcoordinates 1": -78.7646382, "GMcoordinates 2": 39.3435028, "name": "Romney Elementary School", "address": "45 School Street", "city": "Romney", "joinedAddress": "45 School Street , Romney, WV, 26757", "zip": 26757 }, "geometry": { "type": "Point", "coordinates": [ -78.7646382, 39.3435028 ] } },
{ "type": "Feature", "properties": { "county": "Mineral", "GMcoordinates 1": -78.8032197, "GMcoordinates 2": 39.5477384, "name": "Frankfort High School", "address": "393 Falcon Way", "city": "Ridgeley", "joinedAddress": "393 Falcon Way, Ridgeley, WV, 26753", "zip": 26753 }, "geometry": { "type": "Point", "coordinates": [ -78.8032197, 39.5477384 ] } },
{ "type": "Feature", "properties": { "county": "Mineral", "GMcoordinates 1": -78.8038712, "GMcoordinates 2": 39.5409756, "name": "Frankfort Middle School", "address": "356 Golden Drive", "city": "Ridgeley", "joinedAddress": "356 Golden Drive, Ridgeley, WV, 26753", "zip": 26753 }, "geometry": { "type": "Point", "coordinates": [ -78.8038712, 39.5409756 ] } },
{ "type": "Feature", "properties": { "county": "Mineral", "GMcoordinates 1": -78.9197132, "GMcoordinates 2": 39.3343491, "name": "Burlington Primary", "address": "10474 Patterson Creek Road", "city": "Burlington", "joinedAddress": "10474 Patterson Creek Road, Burlington, WV, 26710", "zip": 26710 }, "geometry": { "type": "Point", "coordinates": [ -78.9197132, 39.3343491 ] } },
{ "type": "Feature", "properties": { "county": "Mineral", "GMcoordinates 1": -78.9375829, "GMcoordinates 2": 39.4222667, "name": "Fountain Primary School", "address": "289 Fountain School Road", "city": "Keyser", "joinedAddress": "289 Fountain School Road, Keyser, WV, 26726", "zip": 26726 }, "geometry": { "type": "Point", "coordinates": [ -78.9375829, 39.4222667 ] } },
{ "type": "Feature", "properties": { "county": "Mineral", "GMcoordinates 1": -78.9846629, "GMcoordinates 2": 39.4302781, "name": "Mineral County Technical Center", "address": "981 Harley O. Staggers Drive", "city": "Keyser", "joinedAddress": "981 Harley O. Staggers Drive , Keyser, WV, 26726", "zip": 26726 }, "geometry": { "type": "Point", "coordinates": [ -78.984662899999989, 39.4302781 ] } },
{ "type": "Feature", "properties": { "county": "Mineral", "GMcoordinates 1": -78.9846629, "GMcoordinates 2": 39.4302781, "name": "Keyser Middle School", "address": "879 Harley O. Staggers Drive", "city": "Keyser", "joinedAddress": "879 Harley O. Staggers Drive , Keyser, WV, 26726", "zip": 26726 }, "geometry": { "type": "Point", "coordinates": [ -78.984662899999989, 39.4302781 ] } },
{ "type": "Feature", "properties": { "county": "Mineral", "GMcoordinates 1": -78.9905764, "GMcoordinates 2": 39.4244634, "name": "Keyser Primary School", "address": "1123 Harley O. Staggers Drive", "city": "Keyser", "joinedAddress": "1123 Harley O. Staggers Drive, Keyser, WV, 26726", "zip": 26726 }, "geometry": { "type": "Point", "coordinates": [ -78.9905764, 39.4244634 ] } },
{ "type": "Feature", "properties": { "county": "Mineral", "GMcoordinates 1": -78.9906196, "GMcoordinates 2": 39.4297575, "name": "Mineral County Alternative School", "address": "89 Baker Place", "city": "Keyser", "joinedAddress": "89 Baker Place, Keyser, WV, 26726", "zip": 26726 }, "geometry": { "type": "Point", "coordinates": [ -78.9906196, 39.4297575 ] } },
{ "type": "Feature", "properties": { "county": "Mineral", "GMcoordinates 1": -79.0213966, "GMcoordinates 2": 39.3996909, "name": "Keyser High School", "address": "328 One Tornado Way", "city": "Keyser", "joinedAddress": "328 One Tornado Way, Keyser, WV, 26726", "zip": 26726 }, "geometry": { "type": "Point", "coordinates": [ -79.0213966, 39.3996909 ] } },
{ "type": "Feature", "properties": { "county": "Mineral", "GMcoordinates 1": -79.0284095, "GMcoordinates 2": 39.374188, "name": "New Creek Primary School", "address": "PO Box 97, 85 New Creek School Road", "city": "New Creek", "joinedAddress": "PO Box 97, 85 New Creek School Road, New Creek, WV, 26743", "zip": 26743 }, "geometry": { "type": "Point", "coordinates": [ -79.0284095, 39.374188 ] } },
{ "type": "Feature", "properties": { "county": "Mineral", "GMcoordinates 1": -79.1522566, "GMcoordinates 2": 39.3809314, "name": "Elk Garden School", "address": "86 Elk Garden Highway", "city": "Elk Garden", "joinedAddress": "86 Elk Garden Highway, Elk Garden, WV, 26717", "zip": 26717 }, "geometry": { "type": "Point", "coordinates": [ -79.1522566, 39.3809314 ] } },
{ "type": "Feature", "properties": { "county": "Preston", "GMcoordinates 1": -79.535485, "GMcoordinates 2": 39.443038, "name": "Terra Alta\/East Preston School", "address": "1103 East State Avenue", "city": "Terra Alta", "joinedAddress": "1103 East State Avenue , Terra Alta, WV, 26764", "zip": 26764 }, "geometry": { "type": "Point", "coordinates": [ -79.535485, 39.443038 ] } },
{ "type": "Feature", "properties": { "county": "Preston", "GMcoordinates 1": -79.550323, "GMcoordinates 2": 39.323677, "name": "Aurora Elementary", "address": "125 Aurora School Road", "city": "Aurora", "joinedAddress": "125 Aurora School Road , Aurora, WV, 26705", "zip": 26705 }, "geometry": { "type": "Point", "coordinates": [ -79.550323, 39.323677 ] } },
{ "type": "Feature", "properties": { "county": "Preston", "GMcoordinates 1": -79.641173, "GMcoordinates 2": 39.657253, "name": "Bruceton School", "address": "P.o. Box 141 141 Morgantown Street", "city": "Bruceton Mills", "joinedAddress": "P.o. Box 141 141 Morgantown Street, Bruceton Mills, WV, 26525", "zip": 26525 }, "geometry": { "type": "Point", "coordinates": [ -79.641173, 39.657253 ] } },
{ "type": "Feature", "properties": { "county": "Preston", "GMcoordinates 1": -79.677836, "GMcoordinates 2": 39.460035, "name": "Central Preston Middle School", "address": "500 Knight Drive", "city": "Kingwood", "joinedAddress": "500 Knight Drive , Kingwood, WV, 26537", "zip": 26537 }, "geometry": { "type": "Point", "coordinates": [ -79.677836, 39.460035 ] } },
{ "type": "Feature", "properties": { "county": "Preston", "GMcoordinates 1": -79.677956, "GMcoordinates 2": 39.46012, "name": "Preston High School", "address": "400 Knight Drive", "city": "Kingwood", "joinedAddress": "400 Knight Drive , Kingwood, WV, 26537", "zip": 26537 }, "geometry": { "type": "Point", "coordinates": [ -79.677956, 39.46012 ] } },
{ "type": "Feature", "properties": { "county": "Preston", "GMcoordinates 1": -79.6864031, "GMcoordinates 2": 39.3559684, "name": "Rowlesburg School", "address": "46 Center Street", "city": "Rowlesburg", "joinedAddress": "46 Center Street , Rowlesburg, WV, 26425", "zip": 26425 }, "geometry": { "type": "Point", "coordinates": [ -79.6864031, 39.355968399999988 ] } },
{ "type": "Feature", "properties": { "county": "Preston", "GMcoordinates 1": -79.686473, "GMcoordinates 2": 39.4686049, "name": "Kingwood Elementary", "address": "207 S Price Street", "city": "Kingwood", "joinedAddress": "207 S Price Street , Kingwood, WV, 26537", "zip": 26537 }, "geometry": { "type": "Point", "coordinates": [ -79.686473, 39.4686049 ] } },
{ "type": "Feature", "properties": { "county": "Preston", "GMcoordinates 1": -79.7716918, "GMcoordinates 2": 39.3807731, "name": "South Preston School", "address": "5258 South Preston Highway", "city": "Tunnelton", "joinedAddress": "5258 South Preston Highway, Tunnelton, WV, 26444", "zip": 26444 }, "geometry": { "type": "Point", "coordinates": [ -79.7716918, 39.3807731 ] } },
{ "type": "Feature", "properties": { "county": "Preston", "GMcoordinates 1": -79.8118142, "GMcoordinates 2": 39.496727, "name": "West Preston School", "address": "113 Eby School Road", "city": "Arthurdale", "joinedAddress": "113 Eby School Road, Arthurdale, WV, 26520", "zip": 26520 }, "geometry": { "type": "Point", "coordinates": [ -79.8118142, 39.496727 ] } },
{ "type": "Feature", "properties": { "county": "Preston", "GMcoordinates 1": -79.82287, "GMcoordinates 2": 39.329611, "name": "Fellowsville Elementary", "address": "139 Fellowsville School Rd", "city": "Tunnelton", "joinedAddress": "139 Fellowsville School Rd , Tunnelton, WV, 26444", "zip": 26444 }, "geometry": { "type": "Point", "coordinates": [ -79.82287, 39.329611 ] } },
{ "type": "Feature", "properties": { "county": "Monongalia", "GMcoordinates 1": -79.8681733, "GMcoordinates 2": 39.6529937, "name": "Cheat Lake Elementary School", "address": "154 Crosby Road", "city": "Morgantown", "joinedAddress": "154 Crosby Road , Morgantown, WV, 26508", "zip": 26508 }, "geometry": { "type": "Point", "coordinates": [ -79.8681733, 39.6529937 ] } },
{ "type": "Feature", "properties": { "county": "Monongalia", "GMcoordinates 1": -79.9050144, "GMcoordinates 2": 39.6102152, "name": "Brookhaven Elementary School", "address": "1215 Baker Street", "city": "Morgantown", "joinedAddress": "1215 Baker Street , Morgantown, WV, 26508", "zip": 26508 }, "geometry": { "type": "Point", "coordinates": [ -79.9050144, 39.6102152 ] } },
{ "type": "Feature", "properties": { "county": "Monongalia", "GMcoordinates 1": -79.9286664, "GMcoordinates 2": 39.6878374, "name": "University High School", "address": "131 Baker`s Ridge Road", "city": "Morgantown", "joinedAddress": "131 Baker`s Ridge Road , Morgantown, WV, 26508", "zip": 26508 }, "geometry": { "type": "Point", "coordinates": [ -79.9286664, 39.6878374 ] } },
{ "type": "Feature", "properties": { "county": "Monongalia", "GMcoordinates 1": -79.9395488, "GMcoordinates 2": 39.6539836, "name": "Eastwood Elementary School", "address": "677 201 St. Memorial Hwy", "city": "Morgantown", "joinedAddress": "677 201 St. Memorial Hwy, Morgantown, WV, 26505", "zip": 26505 }, "geometry": { "type": "Point", "coordinates": [ -79.9395488, 39.6539836 ] } },
{ "type": "Feature", "properties": { "county": "Monongalia", "GMcoordinates 1": -79.9403896, "GMcoordinates 2": 39.5505097, "name": "Ridgedale Elementary School", "address": "1550 Goshen Road", "city": "Morgantown", "joinedAddress": "1550 Goshen Road , Morgantown, WV, 26508", "zip": 26508 }, "geometry": { "type": "Point", "coordinates": [ -79.9403896, 39.5505097 ] } },
{ "type": "Feature", "properties": { "county": "Monongalia", "GMcoordinates 1": -79.943352, "GMcoordinates 2": 39.610532, "name": "Mountainview Elementary School", "address": "661 Greenbag Road", "city": "Morgantown", "joinedAddress": "661 Greenbag Road , Morgantown, WV, 26508", "zip": 26508 }, "geometry": { "type": "Point", "coordinates": [ -79.943352, 39.610532 ] } },
{ "type": "Feature", "properties": { "county": "Monongalia", "GMcoordinates 1": -79.9464634, "GMcoordinates 2": 39.6376357, "name": "Mountaineer Middle School", "address": "991 Price Street", "city": "Morgantown", "joinedAddress": "991 Price Street , Morgantown, WV, 26505", "zip": 26505 }, "geometry": { "type": "Point", "coordinates": [ -79.9464634, 39.6376357 ] } },
{ "type": "Feature", "properties": { "county": "Monongalia", "GMcoordinates 1": -79.9550977, "GMcoordinates 2": 39.612582, "name": "South Middle School", "address": "500 East Parkway Drive", "city": "Morgantown", "joinedAddress": "500 East Parkway Drive , Morgantown, WV, 26501", "zip": 26501 }, "geometry": { "type": "Point", "coordinates": [ -79.9550977, 39.612582 ] } },
{ "type": "Feature", "properties": { "county": "Monongalia", "GMcoordinates 1": -79.9568398, "GMcoordinates 2": 39.657972, "name": "North Elementary School", "address": "825 Chestnut Ridge Road", "city": "Morgantown", "joinedAddress": "825 Chestnut Ridge Road , Morgantown, WV, 26505", "zip": 26505 }, "geometry": { "type": "Point", "coordinates": [ -79.9568398, 39.657972 ] } },
{ "type": "Feature", "properties": { "county": "Monongalia", "GMcoordinates 1": -79.9568666, "GMcoordinates 2": 39.6239373, "name": "Morgantown High School", "address": "109 Wilson Avenue", "city": "Morgantown", "joinedAddress": "109 Wilson Avenue , Morgantown, WV, 26501", "zip": 26501 }, "geometry": { "type": "Point", "coordinates": [ -79.9568666, 39.6239373 ] } },
{ "type": "Feature", "properties": { "county": "Monongalia", "GMcoordinates 1": -79.9572338, "GMcoordinates 2": 39.6112181, "name": "Technical Education Center", "address": "1000 Mississippi Street", "city": "Morgantown", "joinedAddress": "1000 Mississippi Street , Morgantown, WV, 26501", "zip": 26501 }, "geometry": { "type": "Point", "coordinates": [ -79.9572338, 39.611218099999988 ] } },
{ "type": "Feature", "properties": { "county": "Monongalia", "GMcoordinates 1": -79.971042, "GMcoordinates 2": 39.652554, "name": "Suncrest Middle School", "address": "360 Baldwin Street", "city": "Morgantown", "joinedAddress": "360 Baldwin Street , Morgantown, WV, 26505", "zip": 26505 }, "geometry": { "type": "Point", "coordinates": [ -79.971042, 39.652554 ] } },
{ "type": "Feature", "properties": { "county": "Monongalia", "GMcoordinates 1": -79.9768671, "GMcoordinates 2": 39.6599771, "name": "Suncrest Primary", "address": "523 Junior Avenue", "city": "Morgantown", "joinedAddress": "523 Junior Avenue , Morgantown, WV, 26505", "zip": 26505 }, "geometry": { "type": "Point", "coordinates": [ -79.9768671, 39.6599771 ] } },
{ "type": "Feature", "properties": { "county": "Monongalia", "GMcoordinates 1": -79.978433, "GMcoordinates 2": 39.618401, "name": "Westwood Middle School", "address": "670 River Road", "city": "Morgantown", "joinedAddress": "670 River Road , Morgantown, WV, 26501", "zip": 26501 }, "geometry": { "type": "Point", "coordinates": [ -79.978433, 39.618401 ] } },
{ "type": "Feature", "properties": { "county": "Monongalia", "GMcoordinates 1": -79.981637, "GMcoordinates 2": 39.617116, "name": "Skyview Elementary School", "address": "668 River Road", "city": "Morgantown", "joinedAddress": "668 River Road , Morgantown, WV, 26501", "zip": 26501 }, "geometry": { "type": "Point", "coordinates": [ -79.981637, 39.617116 ] } },
{ "type": "Feature", "properties": { "county": "Monongalia", "GMcoordinates 1": -80.0301756, "GMcoordinates 2": 39.6424999, "name": "Mylan Park Elementary School", "address": "901 Mylan Park Lane", "city": "Morgantown", "joinedAddress": "901 Mylan Park Lane , Morgantown, WV, 26501", "zip": 26501 }, "geometry": { "type": "Point", "coordinates": [ -80.0301756, 39.6424999 ] } },
{ "type": "Feature", "properties": { "county": "Monongalia", "GMcoordinates 1": -80.2235649, "GMcoordinates 2": 39.719754, "name": "Clay-Battelle High School", "address": "Drawer A", "city": "Blacksville", "joinedAddress": "Drawer A , Blacksville, WV, 26521", "zip": 26521 }, "geometry": { "type": "Point", "coordinates": [ -80.2235649, 39.719754 ] } },
{ "type": "Feature", "properties": { "county": "Harrison", "GMcoordinates 1": -80.2522571, "GMcoordinates 2": 39.2860172, "name": "Simpson Elementary School", "address": "250 Worthington Dr", "city": "Bridgeport", "joinedAddress": "250 Worthington Dr , Bridgeport, WV, 26330", "zip": 26330 }, "geometry": { "type": "Point", "coordinates": [ -80.2522571, 39.2860172 ] } },
{ "type": "Feature", "properties": { "county": "Monongalia", "GMcoordinates 1": -80.2535179, "GMcoordinates 2": 39.7101137, "name": "Mason-Dixon Elementary", "address": "7041 Mason Dixon Highway", "city": "Blacksville", "joinedAddress": "7041 Mason Dixon Highway , Blacksville, WV, 26521", "zip": 26521 }, "geometry": { "type": "Point", "coordinates": [ -80.2535179, 39.7101137 ] } },
{ "type": "Feature", "properties": { "county": "Harrison", "GMcoordinates 1": -80.2620134, "GMcoordinates 2": 39.2882846, "name": "Bridgeport Middle School", "address": "413 Johnson Ave", "city": "Bridgeport", "joinedAddress": "413 Johnson Ave , Bridgeport, WV, 26330", "zip": 26330 }, "geometry": { "type": "Point", "coordinates": [ -80.2620134, 39.2882846 ] } },
{ "type": "Feature", "properties": { "county": "Harrison", "GMcoordinates 1": -80.263604, "GMcoordinates 2": 39.2909507, "name": "Johnson Elementary School", "address": "531 Johnson Ave", "city": "Bridgeport", "joinedAddress": "531 Johnson Ave , Bridgeport, WV, 26330", "zip": 26330 }, "geometry": { "type": "Point", "coordinates": [ -80.263604, 39.2909507 ] } },
{ "type": "Feature", "properties": { "county": "Harrison", "GMcoordinates 1": -80.2636684, "GMcoordinates 2": 39.2897899, "name": "Bridgeport High School", "address": "515 Johnson Ave", "city": "Bridgeport", "joinedAddress": "515 Johnson Ave , Bridgeport, WV, 26330", "zip": 26330 }, "geometry": { "type": "Point", "coordinates": [ -80.2636684, 39.2897899 ] } },
{ "type": "Feature", "properties": { "county": "Harrison", "GMcoordinates 1": -80.2854417, "GMcoordinates 2": 39.4043252, "name": "Big Elm Elementary School", "address": "200 Tetrick Rd", "city": "Shinnston", "joinedAddress": "200 Tetrick Rd , Shinnston, WV, 26431", "zip": 26431 }, "geometry": { "type": "Point", "coordinates": [ -80.2854417, 39.4043252 ] } },
{ "type": "Feature", "properties": { "county": "Harrison", "GMcoordinates 1": -80.3160369, "GMcoordinates 2": 39.2500377, "name": "Norwood Elementary School", "address": "208 Kidd Ave", "city": "Stonewood", "joinedAddress": "208 Kidd Ave , Stonewood, WV, 26301", "zip": 26301 }, "geometry": { "type": "Point", "coordinates": [ -80.3160369, 39.2500377 ] } },
{ "type": "Feature", "properties": { "county": "Harrison", "GMcoordinates 1": -80.3256627, "GMcoordinates 2": 39.2599393, "name": "Nutter Fort Intermediate School", "address": "1302 Buckhannon Pike", "city": "Nutter Fort", "joinedAddress": "1302 Buckhannon Pike , Nutter Fort, WV, 26301", "zip": 26301 }, "geometry": { "type": "Point", "coordinates": [ -80.3256627, 39.2599393 ] } },
{ "type": "Feature", "properties": { "county": "Harrison", "GMcoordinates 1": -80.3256627, "GMcoordinates 2": 39.2599393, "name": "Nutter Fort Primary School", "address": "1302 Buckhannon Pike", "city": "Nutter Fort", "joinedAddress": "1302 Buckhannon Pike , Nutter Fort, WV, 26301", "zip": 26301 }, "geometry": { "type": "Point", "coordinates": [ -80.3256627, 39.2599393 ] } },
{ "type": "Feature", "properties": { "county": "Harrison", "GMcoordinates 1": -80.3428076, "GMcoordinates 2": 39.2781728, "name": "Washington Irving Middle School", "address": "443 Lee Ave", "city": "Clarksburg", "joinedAddress": "443 Lee Ave , Clarksburg, WV, 26301", "zip": 26301 }, "geometry": { "type": "Point", "coordinates": [ -80.3428076, 39.2781728 ] } },
{ "type": "Feature", "properties": { "county": "Harrison", "GMcoordinates 1": -80.3445341, "GMcoordinates 2": 39.2806451, "name": "Harrison Co Alternative Learning Center", "address": "Rr 3 Box 43b", "city": "Clarksburg", "joinedAddress": "Rr 3 Box 43b , Clarksburg, WV, 26301", "zip": 26301 }, "geometry": { "type": "Point", "coordinates": [ -80.3445341, 39.2806451 ] } },
{ "type": "Feature", "properties": { "county": "Harrison", "GMcoordinates 1": -80.3445341, "GMcoordinates 2": 39.2806451, "name": "Wilsonburg Elementary School", "address": "Rr 4 Box 1", "city": "Clarksburg", "joinedAddress": "Rr 4 Box 1 , Clarksburg, WV, 26301", "zip": 26301 }, "geometry": { "type": "Point", "coordinates": [ -80.3445341, 39.2806451 ] } },
{ "type": "Feature", "properties": { "county": "Harrison", "GMcoordinates 1": -80.345862, "GMcoordinates 2": 39.376851, "name": "Lumberport Middle School", "address": "314 Main Street", "city": "Lumberport", "joinedAddress": "314 Main Street , Lumberport, WV, 26386", "zip": 26386 }, "geometry": { "type": "Point", "coordinates": [ -80.345862, 39.376851 ] } },
{ "type": "Feature", "properties": { "county": "Harrison", "GMcoordinates 1": -80.3479852, "GMcoordinates 2": 39.2950412, "name": "North View Elementary School", "address": "1400 N 19th Street", "city": "Clarksburg", "joinedAddress": "1400 N 19th Street , Clarksburg, WV, 26301", "zip": 26301 }, "geometry": { "type": "Point", "coordinates": [ -80.3479852, 39.2950412 ] } },
{ "type": "Feature", "properties": { "county": "Harrison", "GMcoordinates 1": -80.3495721, "GMcoordinates 2": 39.3767753, "name": "Lumberport Elementary School", "address": "Po Box 417 Chestnut & Lyndon Streets", "city": "Lumberport", "joinedAddress": "Po Box 417 Chestnut & Lyndon Streets, Lumberport, WV, 26386", "zip": 26386 }, "geometry": { "type": "Point", "coordinates": [ -80.3495721, 39.3767753 ] } },
{ "type": "Feature", "properties": { "county": "Harrison", "GMcoordinates 1": -80.350519, "GMcoordinates 2": 39.160535, "name": "Lost Creek Elementary School", "address": "Po Box 128", "city": "Lost Creek", "joinedAddress": "Po Box 128 , Lost Creek, WV, 26385", "zip": 26385 }, "geometry": { "type": "Point", "coordinates": [ -80.350519, 39.160535 ] } },
{ "type": "Feature", "properties": { "county": "Harrison", "GMcoordinates 1": -80.350843, "GMcoordinates 2": 39.2612878, "name": "Robert C. Byrd High School", "address": "1 Eagle Way", "city": "Clarksburg", "joinedAddress": "1 Eagle Way , Clarksburg, WV, 26301", "zip": 26301 }, "geometry": { "type": "Point", "coordinates": [ -80.350843, 39.2612878 ] } },
{ "type": "Feature", "properties": { "county": "Harrison", "GMcoordinates 1": -80.3520335, "GMcoordinates 2": 39.1612035, "name": "South Harrison Middle School", "address": "Rr 1 Box 58b", "city": "Lost Creek", "joinedAddress": "Rr 1 Box 58b , Lost Creek, WV, 26385", "zip": 26385 }, "geometry": { "type": "Point", "coordinates": [ -80.3520335, 39.1612035 ] } },
{ "type": "Feature", "properties": { "county": "Harrison", "GMcoordinates 1": -80.3520335, "GMcoordinates 2": 39.1612035, "name": "South Harrison High School", "address": "Rr 1 Box 58", "city": "Lost Creek", "joinedAddress": "Rr 1 Box 58 , Lost Creek, WV, 26385", "zip": 26385 }, "geometry": { "type": "Point", "coordinates": [ -80.3520335, 39.1612035 ] } },
{ "type": "Feature", "properties": { "county": "Harrison", "GMcoordinates 1": -80.35527, "GMcoordinates 2": 39.309937, "name": "Harrison Co Transitional Middle School", "address": "1349 Shinnston Pk", "city": "Clarksburg", "joinedAddress": "1349 Shinnston Pk, Clarksburg, WV, 26301", "zip": 26301 }, "geometry": { "type": "Point", "coordinates": [ -80.35527, 39.309937 ] } },
{ "type": "Feature", "properties": { "county": "Harrison", "GMcoordinates 1": -80.358834, "GMcoordinates 2": 39.310815, "name": "United Technical Center", "address": "251 Marietta St.", "city": "Clarksburg", "joinedAddress": "251 Marietta St., Clarksburg, WV, 26301", "zip": 26301 }, "geometry": { "type": "Point", "coordinates": [ -80.358834, 39.310815 ] } },
{ "type": "Feature", "properties": { "county": "Harrison", "GMcoordinates 1": -80.3591659, "GMcoordinates 2": 39.2914318, "name": "Adamston Elementary School", "address": "1636 W Pike St", "city": "Clarksburg", "joinedAddress": "1636 W Pike St , Clarksburg, WV, 26301", "zip": 26301 }, "geometry": { "type": "Point", "coordinates": [ -80.3591659, 39.2914318 ] } },
{ "type": "Feature", "properties": { "county": "Harrison", "GMcoordinates 1": -80.3969089, "GMcoordinates 2": 39.2779669, "name": "Mountaineer Middle School", "address": "2 Mountaineer Dr", "city": "Clarksburg", "joinedAddress": "2 Mountaineer Dr , Clarksburg, WV, 26301", "zip": 26301 }, "geometry": { "type": "Point", "coordinates": [ -80.3969089, 39.2779669 ] } },
{ "type": "Feature", "properties": { "county": "Harrison", "GMcoordinates 1": -80.397701, "GMcoordinates 2": 39.276026, "name": "Liberty High School", "address": "1 Mountaineer Dr", "city": "Clarksburg", "joinedAddress": "1 Mountaineer Dr , Clarksburg, WV, 26301", "zip": 26301 }, "geometry": { "type": "Point", "coordinates": [ -80.397701, 39.276026 ] } },
{ "type": "Feature", "properties": { "county": "Harrison", "GMcoordinates 1": -80.4040406, "GMcoordinates 2": 39.2018943, "name": "West Milford Elementary School", "address": "226 School St", "city": "West Milford", "joinedAddress": "226 School St , West Milford, WV, 26451", "zip": 26451 }, "geometry": { "type": "Point", "coordinates": [ -80.4040406, 39.2018943 ] } },
{ "type": "Feature", "properties": { "county": "Hancock", "GMcoordinates 1": -80.5252366, "GMcoordinates 2": 40.4134553, "name": "Broadview Elementary School", "address": "189 Circle Drive", "city": "Weirton", "joinedAddress": "189 Circle Drive , Weirton, WV, 26062", "zip": 26062 }, "geometry": { "type": "Point", "coordinates": [ -80.5252366, 40.4134553 ] } },
{ "type": "Feature", "properties": { "county": "Nicholas", "GMcoordinates 1": -80.5311673, "GMcoordinates 2": 38.2229779, "name": "Richwood High School", "address": "1 Valley Ave.", "city": "Richwood", "joinedAddress": "1 Valley Ave. , Richwood, WV, 26261", "zip": 26261 }, "geometry": { "type": "Point", "coordinates": [ -80.5311673, 38.2229779 ] } },
{ "type": "Feature", "properties": { "county": "Nicholas", "GMcoordinates 1": -80.531176, "GMcoordinates 2": 38.223092, "name": "Richwood Middle School", "address": "2 Valley Avenue", "city": "Richwood", "joinedAddress": "2 Valley Avenue , Richwood, WV, 26261", "zip": 26261 }, "geometry": { "type": "Point", "coordinates": [ -80.531176, 38.223092 ] } },
{ "type": "Feature", "properties": { "county": "Hancock", "GMcoordinates 1": -80.5337044, "GMcoordinates 2": 40.4086851, "name": "Weirton Elementary", "address": "3428 Pennsylvania Ave", "city": "Weirton", "joinedAddress": "3428 Pennsylvania Ave, Weirton, WV, 26062", "zip": 26062 }, "geometry": { "type": "Point", "coordinates": [ -80.5337044, 40.4086851 ] } },
{ "type": "Feature", "properties": { "county": "Brooke", "GMcoordinates 1": -80.5374723, "GMcoordinates 2": 40.3663856, "name": "Colliers Primary School", "address": "Penn Street", "city": "Colliers", "joinedAddress": "Penn Street , Colliers, WV, 26035", "zip": 26035 }, "geometry": { "type": "Point", "coordinates": [ -80.5374723, 40.3663856 ] } },
{ "type": "Feature", "properties": { "county": "Brooke", "GMcoordinates 1": -80.53826, "GMcoordinates 2": 40.2725069, "name": "Franklin Primary School", "address": "1305 Washington Pike", "city": "Wellsburg", "joinedAddress": "1305 Washington Pike , Wellsburg, WV, 26070", "zip": 26070 }, "geometry": { "type": "Point", "coordinates": [ -80.53826, 40.2725069 ] } },
{ "type": "Feature", "properties": { "county": "Hancock", "GMcoordinates 1": -80.543061, "GMcoordinates 2": 40.4166389, "name": "Liberty Elementary School", "address": "200 Culler Road", "city": "Weirton", "joinedAddress": "200 Culler Road , Weirton, WV, 26062", "zip": 26062 }, "geometry": { "type": "Point", "coordinates": [ -80.543061, 40.4166389 ] } },
{ "type": "Feature", "properties": { "county": "Nicholas", "GMcoordinates 1": -80.5534124, "GMcoordinates 2": 38.2189727, "name": "Cherry River Elementary School", "address": "190 Riverside Drive", "city": "Richwood", "joinedAddress": "190 Riverside Drive , Richwood, WV, 26261", "zip": 26261 }, "geometry": { "type": "Point", "coordinates": [ -80.5534124, 38.218972699999988 ] } },
{ "type": "Feature", "properties": { "county": "Hancock", "GMcoordinates 1": -80.559075, "GMcoordinates 2": 40.543326, "name": "Oak Glen High School", "address": "195 Golden Bear Drive", "city": "New Cumberland", "joinedAddress": "195 Golden Bear Drive , New Cumberland, WV, 26047", "zip": 26047 }, "geometry": { "type": "Point", "coordinates": [ -80.559075, 40.543326 ] } },
{ "type": "Feature", "properties": { "county": "Hancock", "GMcoordinates 1": -80.5599587, "GMcoordinates 2": 40.5444746, "name": "Oak Glen Middle School", "address": "39 Golden Bear Drive", "city": "New Cumberland", "joinedAddress": "39 Golden Bear Drive , New Cumberland, WV, 26047", "zip": 26047 }, "geometry": { "type": "Point", "coordinates": [ -80.5599587, 40.5444746 ] } },
{ "type": "Feature", "properties": { "county": "Hancock", "GMcoordinates 1": -80.5612854, "GMcoordinates 2": 40.6157365, "name": "A. T. Allison Elementary School", "address": "600 Railroad Street", "city": "Chester", "joinedAddress": "600 Railroad Street , Chester, WV, 26034", "zip": 26034 }, "geometry": { "type": "Point", "coordinates": [ -80.561285400000017, 40.6157365 ] } },
{ "type": "Feature", "properties": { "county": "Hancock", "GMcoordinates 1": -80.5710948, "GMcoordinates 2": 40.418015, "name": "Weirton Heights Elementary School", "address": "160 South 12th Street", "city": "Weirton", "joinedAddress": "160 South 12th Street , Weirton, WV, 26062", "zip": 26062 }, "geometry": { "type": "Point", "coordinates": [ -80.5710948, 40.418015 ] } },
{ "type": "Feature", "properties": { "county": "Hancock", "GMcoordinates 1": -80.5753514, "GMcoordinates 2": 40.4060847, "name": "Weir Middle School", "address": "125 Sinclair Avenue", "city": "Weirton", "joinedAddress": "125 Sinclair Avenue , Weirton, WV, 26062", "zip": 26062 }, "geometry": { "type": "Point", "coordinates": [ -80.5753514, 40.4060847 ] } },
{ "type": "Feature", "properties": { "county": "Hancock", "GMcoordinates 1": -80.576799, "GMcoordinates 2": 40.5290139, "name": "New Manchester Elementary School", "address": "128 Frankfort Road", "city": "New Cumberland", "joinedAddress": "128 Frankfort Road , New Cumberland, WV, 26047", "zip": 26047 }, "geometry": { "type": "Point", "coordinates": [ -80.576799, 40.5290139 ] } },
{ "type": "Feature", "properties": { "county": "Hancock", "GMcoordinates 1": -80.577087, "GMcoordinates 2": 40.4052795, "name": "Weir High School", "address": "100 Red Rider Road", "city": "Weirton", "joinedAddress": "100 Red Rider Road , Weirton, WV, 26062", "zip": 26062 }, "geometry": { "type": "Point", "coordinates": [ -80.577087, 40.4052795 ] } },
{ "type": "Feature", "properties": { "county": "Brooke", "GMcoordinates 1": -80.577852, "GMcoordinates 2": 40.324597, "name": "Hooverson Heights Primary School", "address": "200 Rockdale Road", "city": "Follansbee", "joinedAddress": "200 Rockdale Road , Follansbee, WV, 26037", "zip": 26037 }, "geometry": { "type": "Point", "coordinates": [ -80.577852, 40.324597 ] } },
{ "type": "Feature", "properties": { "county": "Brooke", "GMcoordinates 1": -80.594312, "GMcoordinates 2": 40.329752, "name": "Jefferson Primary School", "address": "Jefferson Street", "city": "Follansbee", "joinedAddress": "Jefferson Street , Follansbee, WV, 26037", "zip": 26037 }, "geometry": { "type": "Point", "coordinates": [ -80.594312, 40.329752 ] } },
{ "type": "Feature", "properties": { "county": "Brooke", "GMcoordinates 1": -80.5953079, "GMcoordinates 2": 40.3355161, "name": "Follansbee Middle School", "address": "1400 Main Street", "city": "Follansbee", "joinedAddress": "1400 Main Street , Follansbee, WV, 26037", "zip": 26037 }, "geometry": { "type": "Point", "coordinates": [ -80.5953079, 40.3355161 ] } },
{ "type": "Feature", "properties": { "county": "Ohio", "GMcoordinates 1": -80.5982774, "GMcoordinates 2": 40.1696903, "name": "West Liberty Elementary School", "address": "745 Van Meter Way", "city": "Wheeling", "joinedAddress": "745 Van Meter Way , Wheeling, WV, 26003", "zip": 26003 }, "geometry": { "type": "Point", "coordinates": [ -80.5982774, 40.1696903 ] } },
{ "type": "Feature", "properties": { "county": "Brooke", "GMcoordinates 1": -80.6105096, "GMcoordinates 2": 40.278004, "name": "Wellsburg Primary School", "address": "1448 Main Street", "city": "Wellsburg", "joinedAddress": "1448 Main Street , Wellsburg, WV, 26070", "zip": 26070 }, "geometry": { "type": "Point", "coordinates": [ -80.6105096, 40.278004 ] } },
{ "type": "Feature", "properties": { "county": "Brooke", "GMcoordinates 1": -80.611811, "GMcoordinates 2": 40.277456, "name": "Wellsburg Middle School", "address": "1447 Main Street", "city": "Wellsburg", "joinedAddress": "1447 Main Street , Wellsburg, WV, 26070", "zip": 26070 }, "geometry": { "type": "Point", "coordinates": [ -80.611811, 40.277456 ] } },
{ "type": "Feature", "properties": { "county": "Brooke", "GMcoordinates 1": -80.6118381, "GMcoordinates 2": 40.3953038, "name": "Lauretta B Millsop Primary School", "address": "Legion & Swearingen", "city": "Weirton", "joinedAddress": "Legion & Swearingen , Weirton, WV, 26062", "zip": 26062 }, "geometry": { "type": "Point", "coordinates": [ -80.6118381, 40.3953038 ] } },
{ "type": "Feature", "properties": { "county": "Ohio", "GMcoordinates 1": -80.628945, "GMcoordinates 2": 40.042719, "name": "Middle Creek Elementary School", "address": "579 Middle Creek Road", "city": "Triadelphia", "joinedAddress": "579 Middle Creek Road , Triadelphia, WV, 26059", "zip": 26059 }, "geometry": { "type": "Point", "coordinates": [ -80.628945, 40.042719 ] } },
{ "type": "Feature", "properties": { "county": "Nicholas", "GMcoordinates 1": -80.6497731, "GMcoordinates 2": 38.3273324, "name": "Nicholas County Career\/Technical Center", "address": "215 Milam Addition Rd", "city": "Craigsville", "joinedAddress": "215 Milam Addition Rd , Craigsville, WV, 26205", "zip": 26205 }, "geometry": { "type": "Point", "coordinates": [ -80.6497731, 38.3273324 ] } },
{ "type": "Feature", "properties": { "county": "Ohio", "GMcoordinates 1": -80.6513676, "GMcoordinates 2": 40.0278732, "name": "Elm Grove Elementary School", "address": "85 Mil Acres Dr", "city": "Wheeling", "joinedAddress": "85 Mil Acres Dr , Wheeling, WV, 26003", "zip": 26003 }, "geometry": { "type": "Point", "coordinates": [ -80.6513676, 40.0278732 ] } },
{ "type": "Feature", "properties": { "county": "Brooke", "GMcoordinates 1": -80.6516039, "GMcoordinates 2": 40.225851, "name": "Beech Bottom Primary", "address": "High Street", "city": "Beech Bottom", "joinedAddress": "High Street , Beech Bottom, WV, 26030", "zip": 26030 }, "geometry": { "type": "Point", "coordinates": [ -80.6516039, 40.225851 ] } },
{ "type": "Feature", "properties": { "county": "Nicholas", "GMcoordinates 1": -80.6519961, "GMcoordinates 2": 38.329149, "name": "Gauley River Elementary", "address": "100 School Street", "city": "Craigsville", "joinedAddress": "100 School Street, Craigsville, WV, 26205", "zip": 26205 }, "geometry": { "type": "Point", "coordinates": [ -80.6519961, 38.329149 ] } },
{ "type": "Feature", "properties": { "county": "Ohio", "GMcoordinates 1": -80.6545401, "GMcoordinates 2": 40.0692047, "name": "Wheeling Park High School", "address": "1976 Park View Rd", "city": "Wheeling", "joinedAddress": "1976 Park View Rd , Wheeling, WV, 26003", "zip": 26003 }, "geometry": { "type": "Point", "coordinates": [ -80.6545401, 40.0692047 ] } },
{ "type": "Feature", "properties": { "county": "Ohio", "GMcoordinates 1": -80.6624185, "GMcoordinates 2": 40.0426087, "name": "Bridge Street Middle School", "address": "19 Junior Ave", "city": "Wheeling", "joinedAddress": "19 Junior Ave , Wheeling, WV, 26003", "zip": 26003 }, "geometry": { "type": "Point", "coordinates": [ -80.6624185, 40.0426087 ] } },
{ "type": "Feature", "properties": { "county": "Ohio", "GMcoordinates 1": -80.6747806, "GMcoordinates 2": 40.0600785, "name": "Triadelphia Middle School", "address": "1636 National Rd", "city": "Wheeling", "joinedAddress": "1636 National Rd , Wheeling, WV, 26003", "zip": 26003 }, "geometry": { "type": "Point", "coordinates": [ -80.6747806, 40.0600785 ] } },
{ "type": "Feature", "properties": { "county": "Ohio", "GMcoordinates 1": -80.6762987, "GMcoordinates 2": 40.0600323, "name": "Steenrod Elementary School", "address": "100 Clarks Ln", "city": "Wheeling", "joinedAddress": "100 Clarks Ln , Wheeling, WV, 26003", "zip": 26003 }, "geometry": { "type": "Point", "coordinates": [ -80.6762987, 40.0600323 ] } },
{ "type": "Feature", "properties": { "county": "Ohio", "GMcoordinates 1": -80.691768, "GMcoordinates 2": 40.0449589, "name": "Bethlehem Elementary School", "address": "22 Chapel Rd", "city": "Wheeling", "joinedAddress": "22 Chapel Rd , Wheeling, WV, 26003", "zip": 26003 }, "geometry": { "type": "Point", "coordinates": [ -80.691768, 40.0449589 ] } },
{ "type": "Feature", "properties": { "county": "Ohio", "GMcoordinates 1": -80.6931554, "GMcoordinates 2": 40.077294, "name": "Woodsdale Elementary School", "address": "1 Bethany Pike", "city": "Wheeling", "joinedAddress": "1 Bethany Pike , Wheeling, WV, 26003", "zip": 26003 }, "geometry": { "type": "Point", "coordinates": [ -80.6931554, 40.077294 ] } },
{ "type": "Feature", "properties": { "county": "Ohio", "GMcoordinates 1": -80.7012561, "GMcoordinates 2": 40.114285, "name": "Warwood School", "address": "150 Viking Dr", "city": "Wheeling", "joinedAddress": "150 Viking Dr , Wheeling, WV, 26003", "zip": 26003 }, "geometry": { "type": "Point", "coordinates": [ -80.7012561, 40.114285 ] } },
{ "type": "Feature", "properties": { "county": "Nicholas", "GMcoordinates 1": -80.705536, "GMcoordinates 2": 38.228907, "name": "Panther Creek Elementary School", "address": "10068 Canvas Nettie Road P.o.box 39", "city": "Nettie", "joinedAddress": "10068 Canvas Nettie Road P.o.box 39, Nettie, WV, 26681", "zip": 26681 }, "geometry": { "type": "Point", "coordinates": [ -80.705536, 38.228907 ] } },
{ "type": "Feature", "properties": { "county": "Ohio", "GMcoordinates 1": -80.7236073, "GMcoordinates 2": 40.0447839, "name": "Ritchie Elementary School", "address": "3700 Wood St", "city": "Wheeling", "joinedAddress": "3700 Wood St , Wheeling, WV, 26003", "zip": 26003 }, "geometry": { "type": "Point", "coordinates": [ -80.7236073, 40.0447839 ] } },
{ "type": "Feature", "properties": { "county": "Ohio", "GMcoordinates 1": -80.726417, "GMcoordinates 2": 40.0478699, "name": "Wheeling Middle School", "address": "35th and Chapline St", "city": "Wheeling", "joinedAddress": "35th and Chapline St , Wheeling, WV, 26003", "zip": 26003 }, "geometry": { "type": "Point", "coordinates": [ -80.726417, 40.047869899999988 ] } },
{ "type": "Feature", "properties": { "county": "Ohio", "GMcoordinates 1": -80.7335621, "GMcoordinates 2": 40.0722792, "name": "Madison Elementary School", "address": "91 Zane St", "city": "Wheeling", "joinedAddress": "91 Zane St , Wheeling, WV, 26003", "zip": 26003 }, "geometry": { "type": "Point", "coordinates": [ -80.7335621, 40.0722792 ] } },
{ "type": "Feature", "properties": { "county": "Nicholas", "GMcoordinates 1": -80.7483056, "GMcoordinates 2": 38.4971667, "name": "Birch River Elementary School", "address": "379 Birch River Road", "city": "Birch River", "joinedAddress": "379 Birch River Road , Birch River, WV, 26610", "zip": 26610 }, "geometry": { "type": "Point", "coordinates": [ -80.7483056, 38.4971667 ] } },
{ "type": "Feature", "properties": { "county": "Nicholas", "GMcoordinates 1": -80.8002546, "GMcoordinates 2": 38.3194084, "name": "Glade Creek Elementary School", "address": "7950 Webster Road", "city": "Summersville", "joinedAddress": "7950 Webster Road , Summersville, WV, 26651", "zip": 26651 }, "geometry": { "type": "Point", "coordinates": [ -80.8002546, 38.3194084 ] } },
{ "type": "Feature", "properties": { "county": "Nicholas", "GMcoordinates 1": -80.8302703, "GMcoordinates 2": 38.322379, "name": "Summersville Middle School", "address": "40 Grizzly Rd", "city": "Summersville", "joinedAddress": "40 Grizzly Rd , Summersville, WV, 26651", "zip": 26651 }, "geometry": { "type": "Point", "coordinates": [ -80.8302703, 38.322379 ] } },
{ "type": "Feature", "properties": { "county": "Nicholas", "GMcoordinates 1": -80.8314911, "GMcoordinates 2": 38.3216046, "name": "Nicholas County High School", "address": "30 Grizzly Rd", "city": "Summersville", "joinedAddress": "30 Grizzly Rd , Summersville, WV, 26651", "zip": 26651 }, "geometry": { "type": "Point", "coordinates": [ -80.8314911, 38.3216046 ] } },
{ "type": "Feature", "properties": { "county": "Nicholas", "GMcoordinates 1": -80.8528935, "GMcoordinates 2": 38.209111, "name": "Mt Nebo Elementary School", "address": "Po Box 160 110 Schoolhouse Lane", "city": "Mt. Nebo", "joinedAddress": "Po Box 160 110 Schoolhouse Lane, Mt. Nebo, WV, 26651", "zip": 26651 }, "geometry": { "type": "Point", "coordinates": [ -80.8528935, 38.209111 ] } },
{ "type": "Feature", "properties": { "county": "Nicholas", "GMcoordinates 1": -80.856742, "GMcoordinates 2": 38.278281, "name": "Summersville Elementary School", "address": "108 Mckees Creek Rd", "city": "Summersville", "joinedAddress": "108 Mckees Creek Rd , Summersville, WV, 26651", "zip": 26651 }, "geometry": { "type": "Point", "coordinates": [ -80.856742, 38.278281 ] } },
{ "type": "Feature", "properties": { "county": "Fayette", "GMcoordinates 1": -80.8600282, "GMcoordinates 2": 37.866317, "name": "Meadow Bridge Elementary", "address": "2725 Main Street", "city": "Meadow Bridge", "joinedAddress": "2725 Main Street , Meadow Bridge, WV, 25976", "zip": 25976 }, "geometry": { "type": "Point", "coordinates": [ -80.8600282, 37.866317 ] } },
{ "type": "Feature", "properties": { "county": "Fayette", "GMcoordinates 1": -80.8600685, "GMcoordinates 2": 37.8663527, "name": "Meadow Bridge High", "address": "2775 Main Street", "city": "Meadow Bridge", "joinedAddress": "2775 Main Street , Meadow Bridge, WV, 25976", "zip": 25976 }, "geometry": { "type": "Point", "coordinates": [ -80.8600685, 37.8663527 ] } },
{ "type": "Feature", "properties": { "county": "Nicholas", "GMcoordinates 1": -80.8754729, "GMcoordinates 2": 38.1566215, "name": "Mt Lookout Elementary School", "address": "1945 Mt. Lookout Road", "city": "Mt Lookout", "joinedAddress": "1945 Mt. Lookout Road , Mt Lookout, WV, 26678", "zip": 26678 }, "geometry": { "type": "Point", "coordinates": [ -80.8754729, 38.1566215 ] } },
{ "type": "Feature", "properties": { "county": "Nicholas", "GMcoordinates 1": -80.9508895, "GMcoordinates 2": 38.2850748, "name": "Zela Elementary School", "address": "165 Country Road", "city": "Summersville", "joinedAddress": "165 Country Road , Summersville, WV, 26651", "zip": 26651 }, "geometry": { "type": "Point", "coordinates": [ -80.9508895, 38.2850748 ] } },
{ "type": "Feature", "properties": { "county": "Mercer", "GMcoordinates 1": -80.9547709, "GMcoordinates 2": 37.3398449, "name": "Oakvale School", "address": "2503 Goodwins Chapel Road", "city": "Princeton", "joinedAddress": "2503 Goodwins Chapel Road , Princeton, WV, 24740", "zip": 24740 }, "geometry": { "type": "Point", "coordinates": [ -80.9547709, 37.3398449 ] } },
{ "type": "Feature", "properties": { "county": "Fayette", "GMcoordinates 1": -80.9688239, "GMcoordinates 2": 38.1107386, "name": "Midland Trail High", "address": "Po Box 89 Rt 60-E", "city": "Hico", "joinedAddress": "Po Box 89 Rt 60-E, Hico, WV, 25854", "zip": 25854 }, "geometry": { "type": "Point", "coordinates": [ -80.9688239, 38.1107386 ] } },
{ "type": "Feature", "properties": { "county": "Mercer", "GMcoordinates 1": -81.006049, "GMcoordinates 2": 37.4247575, "name": "Athens School", "address": "Po Box 568", "city": "Athens", "joinedAddress": "Po Box 568 , Athens, WV, 24712", "zip": 24712 }, "geometry": { "type": "Point", "coordinates": [ -81.006049, 37.424757500000013 ] } },
{ "type": "Feature", "properties": { "county": "Mercer", "GMcoordinates 1": -81.0599572, "GMcoordinates 2": 37.4286616, "name": "Pikeview High School", "address": "3566 Eads Mill Road", "city": "Princeton", "joinedAddress": "3566 Eads Mill Road , Princeton, WV, 24740", "zip": 24740 }, "geometry": { "type": "Point", "coordinates": [ -81.0599572, 37.4286616 ] } },
{ "type": "Feature", "properties": { "county": "Mercer", "GMcoordinates 1": -81.061092, "GMcoordinates 2": 37.427192, "name": "Pikeview Middle School", "address": "3550 Eads Mill Road", "city": "Princeton", "joinedAddress": "3550 Eads Mill Road , Princeton, WV, 24740", "zip": 24740 }, "geometry": { "type": "Point", "coordinates": [ -81.061092, 37.427192 ] } },
{ "type": "Feature", "properties": { "county": "Fayette", "GMcoordinates 1": -81.065429, "GMcoordinates 2": 38.006748, "name": "Gatewood Elementary", "address": "5094 Gatewood Road", "city": "Fayetteville", "joinedAddress": "5094 Gatewood Road , Fayetteville, WV, 25840", "zip": 25840 }, "geometry": { "type": "Point", "coordinates": [ -81.065429, 38.006748 ] } },
{ "type": "Feature", "properties": { "county": "Raleigh", "GMcoordinates 1": -81.0942426, "GMcoordinates 2": 37.7040935, "name": "Shady Spring Elementary", "address": "Po Box 2009", "city": "Shady Spring", "joinedAddress": "Po Box 2009 , Shady Spring, WV, 25918", "zip": 25918 }, "geometry": { "type": "Point", "coordinates": [ -81.0942426, 37.7040935 ] } },
{ "type": "Feature", "properties": { "county": "Raleigh", "GMcoordinates 1": -81.0942426, "GMcoordinates 2": 37.7040935, "name": "Shady Spring High", "address": "Po Box 2001", "city": "Shady Spring", "joinedAddress": "Po Box 2001 , Shady Spring, WV, 25918", "zip": 25918 }, "geometry": { "type": "Point", "coordinates": [ -81.0942426, 37.7040935 ] } },
{ "type": "Feature", "properties": { "county": "Mercer", "GMcoordinates 1": -81.0944618, "GMcoordinates 2": 37.3706849, "name": "Straley Elementary School", "address": "810 Straley Avenue", "city": "Princeton", "joinedAddress": "810 Straley Avenue , Princeton, WV, 24740", "zip": 24740 }, "geometry": { "type": "Point", "coordinates": [ -81.0944618, 37.3706849 ] } },
{ "type": "Feature", "properties": { "county": "Mercer", "GMcoordinates 1": -81.0954184, "GMcoordinates 2": 37.3788847, "name": "Mercer County Early Learning Center", "address": "821 Broadway Street", "city": "Princeton", "joinedAddress": "821 Broadway Street , Princeton, WV, 24740", "zip": 24740 }, "geometry": { "type": "Point", "coordinates": [ -81.0954184, 37.3788847 ] } },
{ "type": "Feature", "properties": { "county": "Fayette", "GMcoordinates 1": -81.0995479, "GMcoordinates 2": 38.1362201, "name": "Ansted Elementary", "address": "Po Box 609", "city": "Ansted", "joinedAddress": "Po Box 609 , Ansted, WV, 25812", "zip": 25812 }, "geometry": { "type": "Point", "coordinates": [ -81.0995479, 38.1362201 ] } },
{ "type": "Feature", "properties": { "county": "Mercer", "GMcoordinates 1": -81.0997104, "GMcoordinates 2": 37.3606943, "name": "Princeton Senior High School", "address": "1321 Stafford Drive", "city": "Princeton", "joinedAddress": "1321 Stafford Drive , Princeton, WV, 24740", "zip": 24740 }, "geometry": { "type": "Point", "coordinates": [ -81.0997104, 37.3606943 ] } },
{ "type": "Feature", "properties": { "county": "Mercer", "GMcoordinates 1": -81.1001355, "GMcoordinates 2": 37.3671685, "name": "Mercer Elementary School", "address": "1200 Mercer Street", "city": "Princeton", "joinedAddress": "1200 Mercer Street , Princeton, WV, 24740", "zip": 24740 }, "geometry": { "type": "Point", "coordinates": [ -81.1001355, 37.3671685 ] } },
{ "type": "Feature", "properties": { "county": "Mercer", "GMcoordinates 1": -81.101791, "GMcoordinates 2": 37.354954, "name": "Princeton Primary", "address": "219b Old Bluefield Road", "city": "Princeton", "joinedAddress": "219b Old Bluefield Road , Princeton, WV, 24740", "zip": 24740 }, "geometry": { "type": "Point", "coordinates": [ -81.101791, 37.354954 ] } },
{ "type": "Feature", "properties": { "county": "Raleigh", "GMcoordinates 1": -81.1026262, "GMcoordinates 2": 37.6938945, "name": "Shady Spring Middle School", "address": "500 Flat Top Road", "city": "Shady Spring", "joinedAddress": "500 Flat Top Road , Shady Spring, WV, 25918", "zip": 25918 }, "geometry": { "type": "Point", "coordinates": [ -81.1026262, 37.6938945 ] } },
{ "type": "Feature", "properties": { "county": "Mercer", "GMcoordinates 1": -81.1030573, "GMcoordinates 2": 37.4786642, "name": "Spanishburg School", "address": "Po Box 7", "city": "Spanishburg", "joinedAddress": "Po Box 7 , Spanishburg, WV, 25922", "zip": 25922 }, "geometry": { "type": "Point", "coordinates": [ -81.1030573, 37.4786642 ] } },
{ "type": "Feature", "properties": { "county": "Mercer", "GMcoordinates 1": -81.1045068, "GMcoordinates 2": 37.3687344, "name": "Princeton Middle School", "address": "300 N. Johnston Street", "city": "Princeton", "joinedAddress": "300 N. Johnston Street , Princeton, WV, 24740", "zip": 24740 }, "geometry": { "type": "Point", "coordinates": [ -81.1045068, 37.3687344 ] } },
{ "type": "Feature", "properties": { "county": "Mercer", "GMcoordinates 1": -81.1046952, "GMcoordinates 2": 37.3600179, "name": "Mercer County Technical Education Center", "address": "1397 Stafford Drive", "city": "Princeton", "joinedAddress": "1397 Stafford Drive , Princeton, WV, 24740", "zip": 24740 }, "geometry": { "type": "Point", "coordinates": [ -81.1046952, 37.3600179 ] } },
{ "type": "Feature", "properties": { "county": "Fayette", "GMcoordinates 1": -81.1052421, "GMcoordinates 2": 38.0525436, "name": "Fayetteville Elementary", "address": "200 Wiseman Avenue", "city": "Fayetteville", "joinedAddress": "200 Wiseman Avenue , Fayetteville, WV, 25840", "zip": 25840 }, "geometry": { "type": "Point", "coordinates": [ -81.1052421, 38.0525436 ] } },
{ "type": "Feature", "properties": { "county": "Fayette", "GMcoordinates 1": -81.1131642, "GMcoordinates 2": 38.0467048, "name": "Fayetteville High", "address": "515 West Maple Avenue", "city": "Fayetteville", "joinedAddress": "515 West Maple Avenue , Fayetteville, WV, 25840", "zip": 25840 }, "geometry": { "type": "Point", "coordinates": [ -81.1131642, 38.0467048 ] } },
{ "type": "Feature", "properties": { "county": "Fayette", "GMcoordinates 1": -81.1335433, "GMcoordinates 2": 37.9995935, "name": "Rosedale Elementary", "address": "4001 Summerlee Rd", "city": "Oak Hill", "joinedAddress": "4001 Summerlee Rd , Oak Hill, WV, 25901", "zip": 25901 }, "geometry": { "type": "Point", "coordinates": [ -81.1335433, 37.9995935 ] } },
{ "type": "Feature", "properties": { "county": "Fayette", "GMcoordinates 1": -81.142077, "GMcoordinates 2": 37.98552, "name": "New River Elementary", "address": "262 Oyler Avenue", "city": "Oak Hill", "joinedAddress": "262 Oyler Avenue , Oak Hill, WV, 25901", "zip": 25901 }, "geometry": { "type": "Point", "coordinates": [ -81.142077, 37.98552 ] } },
{ "type": "Feature", "properties": { "county": "Fayette", "GMcoordinates 1": -81.1469251, "GMcoordinates 2": 37.9888198, "name": "Fayette Institute Of Technology", "address": "300 West Oyler Avenue", "city": "Oak Hill", "joinedAddress": "300 West Oyler Avenue , Oak Hill, WV, 25901", "zip": 25901 }, "geometry": { "type": "Point", "coordinates": [ -81.1469251, 37.9888198 ] } },
{ "type": "Feature", "properties": { "county": "Fayette", "GMcoordinates 1": -81.1483898, "GMcoordinates 2": 37.9911471, "name": "Oak Hill High", "address": "350 West Oyler Avenue", "city": "Oak Hill", "joinedAddress": "350 West Oyler Avenue , Oak Hill, WV, 25901", "zip": 25901 }, "geometry": { "type": "Point", "coordinates": [ -81.1483898, 37.9911471 ] } },
{ "type": "Feature", "properties": { "county": "Mercer", "GMcoordinates 1": -81.151944, "GMcoordinates 2": 37.3373018, "name": "Glenwood School", "address": "1734 Glenwood Park Road", "city": "Princeton", "joinedAddress": "1734 Glenwood Park Road , Princeton, WV, 24740", "zip": 24740 }, "geometry": { "type": "Point", "coordinates": [ -81.151944, 37.3373018 ] } },
{ "type": "Feature", "properties": { "county": "Raleigh", "GMcoordinates 1": -81.153917, "GMcoordinates 2": 37.812429, "name": "Stanaford Elementary School", "address": "950 Stanaford Road", "city": "Beckley", "joinedAddress": "950 Stanaford Road , Beckley, WV, 25801", "zip": 25801 }, "geometry": { "type": "Point", "coordinates": [ -81.153917, 37.812429 ] } },
{ "type": "Feature", "properties": { "county": "Raleigh", "GMcoordinates 1": -81.155153, "GMcoordinates 2": 37.784953, "name": "Beckley-Stratton Middle School", "address": "401 Gray Flats Road", "city": "Beckley", "joinedAddress": "401 Gray Flats Road , Beckley, WV, 25801", "zip": 25801 }, "geometry": { "type": "Point", "coordinates": [ -81.155153, 37.784953 ] } },
{ "type": "Feature", "properties": { "county": "Raleigh", "GMcoordinates 1": -81.155196, "GMcoordinates 2": 37.7832277, "name": "Beckley Elementary", "address": "399 Gray Flats Road", "city": "Beckley", "joinedAddress": "399 Gray Flats Road , Beckley, WV, 25801", "zip": 25801 }, "geometry": { "type": "Point", "coordinates": [ -81.155196, 37.7832277 ] } },
{ "type": "Feature", "properties": { "county": "Fayette", "GMcoordinates 1": -81.1579053, "GMcoordinates 2": 37.9738781, "name": "Collins Middle", "address": "601 Jones Avenue", "city": "Oak Hill", "joinedAddress": "601 Jones Avenue , Oak Hill, WV, 25901", "zip": 25901 }, "geometry": { "type": "Point", "coordinates": [ -81.1579053, 37.9738781 ] } },
{ "type": "Feature", "properties": { "county": "Fayette", "GMcoordinates 1": -81.1632868, "GMcoordinates 2": 37.8942657, "name": "Mount Hope Elementary", "address": "408 Lincoln Street", "city": "Mount Hope", "joinedAddress": "408 Lincoln Street , Mount Hope, WV, 25880", "zip": 25880 }, "geometry": { "type": "Point", "coordinates": [ -81.1632868, 37.8942657 ] } },
{ "type": "Feature", "properties": { "county": "Raleigh", "GMcoordinates 1": -81.1682547, "GMcoordinates 2": 37.8002154, "name": "Woodrow Wilson High School", "address": "400 Stanaford Road", "city": "Beckley", "joinedAddress": "400 Stanaford Road , Beckley, WV, 25801", "zip": 25801 }, "geometry": { "type": "Point", "coordinates": [ -81.1682547, 37.8002154 ] } },
{ "type": "Feature", "properties": { "county": "Raleigh", "GMcoordinates 1": -81.1685098, "GMcoordinates 2": 37.7999083, "name": "Academy Of Careers And Technology", "address": "390 Stanaford Road", "city": "Beckley", "joinedAddress": "390 Stanaford Road , Beckley, WV, 25801", "zip": 25801 }, "geometry": { "type": "Point", "coordinates": [ -81.1685098, 37.7999083 ] } },
{ "type": "Feature", "properties": { "county": "Raleigh", "GMcoordinates 1": -81.173837, "GMcoordinates 2": 37.766447, "name": "Stratton Elementary", "address": "1129 South Fayette Street", "city": "Beckley", "joinedAddress": "1129 South Fayette Street , Beckley, WV, 25801", "zip": 25801 }, "geometry": { "type": "Point", "coordinates": [ -81.173837, 37.766447 ] } },
{ "type": "Feature", "properties": { "county": "Raleigh", "GMcoordinates 1": -81.191154, "GMcoordinates 2": 37.771575, "name": "Park Middle School", "address": "212 Park Avenue", "city": "Beckley", "joinedAddress": "212 Park Avenue , Beckley, WV, 25801", "zip": 25801 }, "geometry": { "type": "Point", "coordinates": [ -81.191154, 37.771575 ] } },
{ "type": "Feature", "properties": { "county": "Raleigh", "GMcoordinates 1": -81.191169, "GMcoordinates 2": 37.82106, "name": "Cranberry-Prosperity Elementary", "address": "4575 Robert C Byrd Dr", "city": "Beckley", "joinedAddress": "4575 Robert C Byrd Dr , Beckley, WV, 25801", "zip": 25801 }, "geometry": { "type": "Point", "coordinates": [ -81.191169, 37.82106 ] } },
{ "type": "Feature", "properties": { "county": "Nicholas", "GMcoordinates 1": -81.192036, "GMcoordinates 2": 38.254408, "name": "Dixie Elementary School", "address": "Po Box 288 1988 Dixie Highway", "city": "Dixie", "joinedAddress": "Po Box 288 1988 Dixie Highway, Dixie, WV, 25059", "zip": 25059 }, "geometry": { "type": "Point", "coordinates": [ -81.192036, 38.254408 ] } },
{ "type": "Feature", "properties": { "county": "Raleigh", "GMcoordinates 1": -81.193389, "GMcoordinates 2": 37.847952, "name": "Bradley Elementary School", "address": "210 Bradley School Road", "city": "Mt Hope", "joinedAddress": "210 Bradley School Road , Mt Hope, WV, 25880", "zip": 25880 }, "geometry": { "type": "Point", "coordinates": [ -81.193389, 37.847952 ] } },
{ "type": "Feature", "properties": { "county": "Mercer", "GMcoordinates 1": -81.19679, "GMcoordinates 2": 37.406273, "name": "Montcalm Elementary School", "address": "Rt 2 Box 35", "city": "Rock", "joinedAddress": "Rt 2 Box 35 , Rock, WV, 24747", "zip": 24747 }, "geometry": { "type": "Point", "coordinates": [ -81.19679, 37.406273 ] } },
{ "type": "Feature", "properties": { "county": "Raleigh", "GMcoordinates 1": -81.197519, "GMcoordinates 2": 37.807839, "name": "Maxwell Hill Elementary", "address": "1001 Maxwell Hill Road", "city": "Beckley", "joinedAddress": "1001 Maxwell Hill Road , Beckley, WV, 25801", "zip": 25801 }, "geometry": { "type": "Point", "coordinates": [ -81.197519, 37.807839 ] } },
{ "type": "Feature", "properties": { "county": "Mercer", "GMcoordinates 1": -81.2097371, "GMcoordinates 2": 37.2583355, "name": "Memorial Primary", "address": "319 Memorial Avenue", "city": "Bluefield", "joinedAddress": "319 Memorial Avenue , Bluefield, WV, 24701", "zip": 24701 }, "geometry": { "type": "Point", "coordinates": [ -81.2097371, 37.2583355 ] } },
{ "type": "Feature", "properties": { "county": "Raleigh", "GMcoordinates 1": -81.2100044, "GMcoordinates 2": 37.7873688, "name": "Crescent Elementary", "address": "205 Crescent Road", "city": "Beckley", "joinedAddress": "205 Crescent Road , Beckley, WV, 25801", "zip": 25801 }, "geometry": { "type": "Point", "coordinates": [ -81.2100044, 37.7873688 ] } },
{ "type": "Feature", "properties": { "county": "Mercer", "GMcoordinates 1": -81.217817, "GMcoordinates 2": 37.248651, "name": "Bluefield High School", "address": "535 West Cumberland Road", "city": "Bluefield", "joinedAddress": "535 West Cumberland Road , Bluefield, WV, 24701", "zip": 24701 }, "geometry": { "type": "Point", "coordinates": [ -81.217817, 37.248651 ] } },
{ "type": "Feature", "properties": { "county": "Raleigh", "GMcoordinates 1": -81.2182331, "GMcoordinates 2": 37.6867156, "name": "Independence High School", "address": "Po Box 1595", "city": "Coal City", "joinedAddress": "Po Box 1595 , Coal City, WV, 25823", "zip": 25823 }, "geometry": { "type": "Point", "coordinates": [ -81.2182331, 37.6867156 ] } },
{ "type": "Feature", "properties": { "county": "Mercer", "GMcoordinates 1": -81.2307006, "GMcoordinates 2": 37.249801, "name": "Whitethorn Elementary School", "address": "1919 Maryland Avenue", "city": "Bluefield", "joinedAddress": "1919 Maryland Avenue , Bluefield, WV, 24701", "zip": 24701 }, "geometry": { "type": "Point", "coordinates": [ -81.2307006, 37.249801 ] } },
{ "type": "Feature", "properties": { "county": "Mercer", "GMcoordinates 1": -81.2323843, "GMcoordinates 2": 37.2431432, "name": "Bluefield Intermediate", "address": "1301 Southview Drive", "city": "Bluefield", "joinedAddress": "1301 Southview Drive , Bluefield, WV, 24701", "zip": 24701 }, "geometry": { "type": "Point", "coordinates": [ -81.2323843, 37.2431432 ] } },
{ "type": "Feature", "properties": { "county": "Raleigh", "GMcoordinates 1": -81.2405784, "GMcoordinates 2": 37.7182976, "name": "Crab Orchard Elementary", "address": "Po Box 727 Rt 16", "city": "Crab Orchard", "joinedAddress": "Po Box 727 Rt 16, Crab Orchard, WV, 25827", "zip": 25827 }, "geometry": { "type": "Point", "coordinates": [ -81.2405784, 37.7182976 ] } },
{ "type": "Feature", "properties": { "county": "Mercer", "GMcoordinates 1": -81.2436322, "GMcoordinates 2": 37.2494521, "name": "Bluefield Middle School", "address": "2002 Stadium Drive", "city": "Bluefield", "joinedAddress": "2002 Stadium Drive , Bluefield, WV, 24701", "zip": 24701 }, "geometry": { "type": "Point", "coordinates": [ -81.2436322, 37.2494521 ] } },
{ "type": "Feature", "properties": { "county": "Raleigh", "GMcoordinates 1": -81.2477531, "GMcoordinates 2": 37.7101555, "name": "Sophia-Soak Creek Elementary", "address": "Po Box 487", "city": "Sophia", "joinedAddress": "Po Box 487 , Sophia, WV, 25921", "zip": 25921 }, "geometry": { "type": "Point", "coordinates": [ -81.2477531, 37.7101555 ] } },
{ "type": "Feature", "properties": { "county": "Raleigh", "GMcoordinates 1": -81.2477531, "GMcoordinates 2": 37.7101555, "name": "Independence Middle School", "address": "Po Box 1171", "city": "Sophia", "joinedAddress": "Po Box 1171 , Sophia, WV, 25921", "zip": 25921 }, "geometry": { "type": "Point", "coordinates": [ -81.2477531, 37.7101555 ] } },
{ "type": "Feature", "properties": { "county": "Mercer", "GMcoordinates 1": -81.2511024, "GMcoordinates 2": 37.3473785, "name": "Montcalm High School", "address": "5366 Simmons River Road", "city": "Rock", "joinedAddress": "5366 Simmons River Road, Rock, WV, 24747", "zip": 24747 }, "geometry": { "type": "Point", "coordinates": [ -81.2511024, 37.3473785 ] } },
{ "type": "Feature", "properties": { "county": "Raleigh", "GMcoordinates 1": -81.2546366, "GMcoordinates 2": 37.6987948, "name": "Hollywood Elementary", "address": "Po Box 7", "city": "Macarthur", "joinedAddress": "Po Box 7 , Macarthur, WV, 25873", "zip": 25873 }, "geometry": { "type": "Point", "coordinates": [ -81.2546366, 37.6987948 ] } },
{ "type": "Feature", "properties": { "county": "Mercer", "GMcoordinates 1": -81.3069315, "GMcoordinates 2": 37.4780145, "name": "Lashmeet\/Matoaka School", "address": "Po Box 408", "city": "Matoaka", "joinedAddress": "Po Box 408 , Matoaka, WV, 24736", "zip": 24736 }, "geometry": { "type": "Point", "coordinates": [ -81.3069315, 37.4780145 ] } },
{ "type": "Feature", "properties": { "county": "Raleigh", "GMcoordinates 1": -81.3234382, "GMcoordinates 2": 37.9067915, "name": "Clear Fork District Elementary", "address": "P.o. Box 127", "city": "Clear Creek", "joinedAddress": "P.o. Box 127 , Clear Creek, WV, 25044", "zip": 25044 }, "geometry": { "type": "Point", "coordinates": [ -81.3234382, 37.9067915 ] } },
{ "type": "Feature", "properties": { "county": "Raleigh", "GMcoordinates 1": -81.336454, "GMcoordinates 2": 37.794213, "name": "Trap Hill Middle School", "address": "665 Coal River Road", "city": "Glen Daniel", "joinedAddress": "665 Coal River Road , Glen Daniel, WV, 25844", "zip": 25844 }, "geometry": { "type": "Point", "coordinates": [ -81.336454, 37.794213 ] } },
{ "type": "Feature", "properties": { "county": "Raleigh", "GMcoordinates 1": -81.3673719, "GMcoordinates 2": 37.7827025, "name": "Fairdale Elementary School", "address": "Po Box 10", "city": "Fairdale", "joinedAddress": "Po Box 10 , Fairdale, WV, 25839", "zip": 25839 }, "geometry": { "type": "Point", "coordinates": [ -81.3673719, 37.7827025 ] } },
{ "type": "Feature", "properties": { "county": "Wyoming", "GMcoordinates 1": -81.3713247, "GMcoordinates 2": 37.5259596, "name": "Herndon Cons Elementary & Middle School", "address": "Po Box 309 4456 Herndon Road", "city": "Bud", "joinedAddress": "Po Box 309 4456 Herndon Road, Bud, WV, 24716", "zip": 24716 }, "geometry": { "type": "Point", "coordinates": [ -81.3713247, 37.5259596 ] } },
{ "type": "Feature", "properties": { "county": "Raleigh", "GMcoordinates 1": -81.3729372, "GMcoordinates 2": 37.7998421, "name": "Liberty High School", "address": "Po Box 265", "city": "Glen Daniel", "joinedAddress": "Po Box 265 , Glen Daniel, WV, 25844", "zip": 25844 }, "geometry": { "type": "Point", "coordinates": [ -81.3729372, 37.7998421 ] } },
{ "type": "Feature", "properties": { "county": "Wyoming", "GMcoordinates 1": -81.3754882, "GMcoordinates 2": 37.588754, "name": "Mullens Middle School", "address": "801 Moran Avenue", "city": "Mullens", "joinedAddress": "801 Moran Avenue , Mullens, WV, 25882", "zip": 25882 }, "geometry": { "type": "Point", "coordinates": [ -81.3754882, 37.588754 ] } },
{ "type": "Feature", "properties": { "county": "Wyoming", "GMcoordinates 1": -81.3800359, "GMcoordinates 2": 37.6001498, "name": "Mullens Elementary School", "address": "2107 Caloric Road", "city": "Mullens", "joinedAddress": "2107 Caloric Road , Mullens, WV, 25882", "zip": 25882 }, "geometry": { "type": "Point", "coordinates": [ -81.3800359, 37.6001498 ] } },
{ "type": "Feature", "properties": { "county": "Wood", "GMcoordinates 1": -81.3838896, "GMcoordinates 2": 39.3383318, "name": "Waverly Elementary School", "address": "422 Virginia St", "city": "Waverly", "joinedAddress": "422 Virginia St , Waverly, WV, 26184", "zip": 26184 }, "geometry": { "type": "Point", "coordinates": [ -81.3838896, 39.3383318 ] } },
{ "type": "Feature", "properties": { "county": "Kanawha", "GMcoordinates 1": -81.4289228, "GMcoordinates 2": 38.2172265, "name": "Cedar Grove Elementary School", "address": "Po Box J", "city": "Cedar Grove", "joinedAddress": "Po Box J , Cedar Grove, WV, 25039", "zip": 25039 }, "geometry": { "type": "Point", "coordinates": [ -81.4289228, 38.2172265 ] } },
{ "type": "Feature", "properties": { "county": "Kanawha", "GMcoordinates 1": -81.4289228, "GMcoordinates 2": 38.2172265, "name": "Cedar Grove Middle School", "address": "Po Box J", "city": "Cedar Grove", "joinedAddress": "Po Box J , Cedar Grove, WV, 25039", "zip": 25039 }, "geometry": { "type": "Point", "coordinates": [ -81.4289228, 38.2172265 ] } },
{ "type": "Feature", "properties": { "county": "McDowell", "GMcoordinates 1": -81.4365833, "GMcoordinates 2": 37.3295833, "name": "Anawalt Elementary School", "address": "Box 230", "city": "Anawalt", "joinedAddress": "Box 230 , Anawalt, WV, 24808", "zip": 24808 }, "geometry": { "type": "Point", "coordinates": [ -81.4365833, 37.3295833 ] } },
{ "type": "Feature", "properties": { "county": "Wood", "GMcoordinates 1": -81.4517356, "GMcoordinates 2": 39.4007652, "name": "Williamstown High School", "address": "219 W 5th St", "city": "Williamstown", "joinedAddress": "219 W 5th St , Williamstown, WV, 26187", "zip": 26187 }, "geometry": { "type": "Point", "coordinates": [ -81.4517356, 39.4007652 ] } },
{ "type": "Feature", "properties": { "county": "Raleigh", "GMcoordinates 1": -81.4519565, "GMcoordinates 2": 37.8482081, "name": "Marsh Fork Elementary", "address": "5690 Coal River Road", "city": "Naoma", "joinedAddress": "5690 Coal River Road , Naoma, WV, 25174", "zip": 25174 }, "geometry": { "type": "Point", "coordinates": [ -81.4519565, 37.8482081 ] } },
{ "type": "Feature", "properties": { "county": "Wood", "GMcoordinates 1": -81.4537335, "GMcoordinates 2": 39.4017671, "name": "Williamstown Elementary School", "address": "418 Williams Ave", "city": "Williamstown", "joinedAddress": "418 Williams Ave , Williamstown, WV, 26187", "zip": 26187 }, "geometry": { "type": "Point", "coordinates": [ -81.4537335, 39.4017671 ] } },
{ "type": "Feature", "properties": { "county": "Wood", "GMcoordinates 1": -81.4610269, "GMcoordinates 2": 39.199402, "name": "Kanawha Elementary School", "address": "6465 Staunton Tpke", "city": "Davisville", "joinedAddress": "6465 Staunton Tpke , Davisville, WV, 26142", "zip": 26142 }, "geometry": { "type": "Point", "coordinates": [ -81.4610269, 39.199402 ] } },
{ "type": "Feature", "properties": { "county": "Kanawha", "GMcoordinates 1": -81.4671585, "GMcoordinates 2": 38.4449168, "name": "Bridge Elementary School", "address": "5120 Elk River Road N", "city": "Elkview", "joinedAddress": "5120 Elk River Road N , Elkview, WV, 25071", "zip": 25071 }, "geometry": { "type": "Point", "coordinates": [ -81.4671585, 38.4449168 ] } },
{ "type": "Feature", "properties": { "county": "Wyoming", "GMcoordinates 1": -81.4709693, "GMcoordinates 2": 37.570262, "name": "Wyoming County East High School", "address": "PO Box 390, 260 Warrior Way", "city": "New Richmond", "joinedAddress": "PO Box 390, 260 Warrior Way, New Richmond, WV, 24867", "zip": 24867 }, "geometry": { "type": "Point", "coordinates": [ -81.4709693, 37.570262 ] } },
{ "type": "Feature", "properties": { "county": "Kanawha", "GMcoordinates 1": -81.477891, "GMcoordinates 2": 38.442588, "name": "Elkview Middle School", "address": "5090 N Elk River Rd", "city": "Elkview", "joinedAddress": "5090 N Elk River Rd , Elkview, WV, 25071", "zip": 25071 }, "geometry": { "type": "Point", "coordinates": [ -81.477891, 38.442588 ] } },
{ "type": "Feature", "properties": { "county": "Kanawha", "GMcoordinates 1": -81.4815615, "GMcoordinates 2": 38.4050054, "name": "Pinch Elementary School", "address": "300 South Pinch Rd", "city": "Elkview", "joinedAddress": "300 South Pinch Rd , Elkview, WV, 25071", "zip": 25071 }, "geometry": { "type": "Point", "coordinates": [ -81.4815615, 38.4050054 ] } },
{ "type": "Feature", "properties": { "county": "Kanawha", "GMcoordinates 1": -81.4827649, "GMcoordinates 2": 38.442321, "name": "Herbert Hoover High School", "address": "5096 N Elk River Rd", "city": "Elkview", "joinedAddress": "5096 N Elk River Rd , Elkview, WV, 25071", "zip": 25071 }, "geometry": { "type": "Point", "coordinates": [ -81.4827649, 38.442321 ] } },
{ "type": "Feature", "properties": { "county": "Kanawha", "GMcoordinates 1": -81.4943595, "GMcoordinates 2": 38.3332057, "name": "Mary Ingles Elementary School", "address": "Po Box 367", "city": "Tad", "joinedAddress": "Po Box 367 , Tad, WV, 25201", "zip": 25201 }, "geometry": { "type": "Point", "coordinates": [ -81.4943595, 38.3332057 ] } },
{ "type": "Feature", "properties": { "county": "Wood", "GMcoordinates 1": -81.5069961, "GMcoordinates 2": 39.2165703, "name": "Caperton Center For Applied Technology", "address": "300 Campus Dr", "city": "Parkersburg", "joinedAddress": "300 Campus Dr , Parkersburg, WV, 26101", "zip": 26101 }, "geometry": { "type": "Point", "coordinates": [ -81.5069961, 39.2165703 ] } },
{ "type": "Feature", "properties": { "county": "Kanawha", "GMcoordinates 1": -81.512694, "GMcoordinates 2": 38.207217, "name": "Riverside High School", "address": "#1 Warrior Way", "city": "Belle", "joinedAddress": "#1 Warrior Way , Belle, WV, 25015", "zip": 25015 }, "geometry": { "type": "Point", "coordinates": [ -81.512694, 38.207217 ] } },
{ "type": "Feature", "properties": { "county": "Wood", "GMcoordinates 1": -81.5134986, "GMcoordinates 2": 39.1775811, "name": "Mineral Wells Elementary School", "address": "1776 Elizabeth Pike", "city": "Mineral Wells", "joinedAddress": "1776 Elizabeth Pike , Mineral Wells, WV, 26150", "zip": 26150 }, "geometry": { "type": "Point", "coordinates": [ -81.5134986, 39.1775811 ] } },
{ "type": "Feature", "properties": { "county": "Wood", "GMcoordinates 1": -81.5153516, "GMcoordinates 2": 39.2848362, "name": "Worthington Elementary School", "address": "2500 36th St", "city": "Parkersburg", "joinedAddress": "2500 36th St , Parkersburg, WV, 26104", "zip": 26104 }, "geometry": { "type": "Point", "coordinates": [ -81.5153516, 39.2848362 ] } },
{ "type": "Feature", "properties": { "county": "Kanawha", "GMcoordinates 1": -81.515369, "GMcoordinates 2": 38.210357, "name": "Midland Trail Elementary School", "address": "200 Ferry St", "city": "Diamond", "joinedAddress": "200 Ferry St , Diamond, WV, 25015", "zip": 25015 }, "geometry": { "type": "Point", "coordinates": [ -81.515369, 38.210357 ] } },
{ "type": "Feature", "properties": { "county": "Wood", "GMcoordinates 1": -81.5203902, "GMcoordinates 2": 39.2704223, "name": "Criss Elementary School", "address": "2800 22nd St", "city": "Parkersburg", "joinedAddress": "2800 22nd St , Parkersburg, WV, 26101", "zip": 26101 }, "geometry": { "type": "Point", "coordinates": [ -81.5203902, 39.2704223 ] } },
{ "type": "Feature", "properties": { "county": "Wood", "GMcoordinates 1": -81.5220127, "GMcoordinates 2": 39.2854332, "name": "Hamilton Middle School", "address": "3501 Cadillac Dr", "city": "Parkersburg", "joinedAddress": "3501 Cadillac Dr , Parkersburg, WV, 26104", "zip": 26104 }, "geometry": { "type": "Point", "coordinates": [ -81.5220127, 39.2854332 ] } },
{ "type": "Feature", "properties": { "county": "Kanawha", "GMcoordinates 1": -81.5263424, "GMcoordinates 2": 38.2155946, "name": "Chesapeake Elementary School", "address": "13620 Mccorkle Ave", "city": "Chesapeake", "joinedAddress": "13620 Mccorkle Ave , Chesapeake, WV, 25315", "zip": 25315 }, "geometry": { "type": "Point", "coordinates": [ -81.5263424, 38.2155946 ] } },
{ "type": "Feature", "properties": { "county": "Wood", "GMcoordinates 1": -81.5287, "GMcoordinates 2": 39.2875325, "name": "Emerson Elementary School", "address": "1605 36th St", "city": "Parkersburg", "joinedAddress": "1605 36th St , Parkersburg, WV, 26101", "zip": 26101 }, "geometry": { "type": "Point", "coordinates": [ -81.5287, 39.2875325 ] } },
{ "type": "Feature", "properties": { "county": "Wyoming", "GMcoordinates 1": -81.5308204, "GMcoordinates 2": 37.6976706, "name": "Glen Fork Elementary & Middle School", "address": "Po Box 50 111 Glen Fork Hollow Road", "city": "Glen Fork", "joinedAddress": "Po Box 50 111 Glen Fork Hollow Road, Glen Fork, WV, 25845", "zip": 25845 }, "geometry": { "type": "Point", "coordinates": [ -81.5308204, 37.6976706 ] } },
{ "type": "Feature", "properties": { "county": "Wood", "GMcoordinates 1": -81.5322578, "GMcoordinates 2": 39.2442428, "name": "Trek Center", "address": "615 Broadway Ave", "city": "Parkersburg", "joinedAddress": "615 Broadway Ave , Parkersburg, WV, 26101", "zip": 26101 }, "geometry": { "type": "Point", "coordinates": [ -81.5322578, 39.244242799999988 ] } },
{ "type": "Feature", "properties": { "county": "Wood", "GMcoordinates 1": -81.5322578, "GMcoordinates 2": 39.2442428, "name": "Fairplains Elementary School", "address": "615 Broadway Ave", "city": "Parkersburg", "joinedAddress": "615 Broadway Ave , Parkersburg, WV, 26101", "zip": 26101 }, "geometry": { "type": "Point", "coordinates": [ -81.5322578, 39.244242799999988 ] } },
{ "type": "Feature", "properties": { "county": "Wood", "GMcoordinates 1": -81.5323006, "GMcoordinates 2": 39.2315501, "name": "Edison Middle School", "address": "1201 Hillcrest St", "city": "Parkersburg", "joinedAddress": "1201 Hillcrest St , Parkersburg, WV, 26101", "zip": 26101 }, "geometry": { "type": "Point", "coordinates": [ -81.5323006, 39.2315501 ] } },
{ "type": "Feature", "properties": { "county": "Wood", "GMcoordinates 1": -81.5336723, "GMcoordinates 2": 39.2835457, "name": "Madison Elementary School", "address": "1426 32nd St", "city": "Parkersburg", "joinedAddress": "1426 32nd St , Parkersburg, WV, 26101", "zip": 26101 }, "geometry": { "type": "Point", "coordinates": [ -81.5336723, 39.2835457 ] } },
{ "type": "Feature", "properties": { "county": "Wood", "GMcoordinates 1": -81.533856, "GMcoordinates 2": 39.2322512, "name": "Martin Elementary School", "address": "1301 Hillcrest St", "city": "Parkersburg", "joinedAddress": "1301 Hillcrest St , Parkersburg, WV, 26101", "zip": 26101 }, "geometry": { "type": "Point", "coordinates": [ -81.533856, 39.2322512 ] } },
{ "type": "Feature", "properties": { "county": "Wyoming", "GMcoordinates 1": -81.534754, "GMcoordinates 2": 37.5792, "name": "Pineville Middle School", "address": "Po Box 470 607 River Road", "city": "Pineville", "joinedAddress": "Po Box 470 607 River Road, Pineville, WV, 24874", "zip": 24874 }, "geometry": { "type": "Point", "coordinates": [ -81.534754, 37.5792 ] } },
{ "type": "Feature", "properties": { "county": "Wyoming", "GMcoordinates 1": -81.534754, "GMcoordinates 2": 37.5792, "name": "Pineville Elementary School", "address": "Po Box 700, 541 River Road", "city": "Pineville", "joinedAddress": "Po Box 700, 541 River Road, Pineville, WV, 24874", "zip": 24874 }, "geometry": { "type": "Point", "coordinates": [ -81.534754, 37.5792 ] } },
{ "type": "Feature", "properties": { "county": "Raleigh", "GMcoordinates 1": -81.5350867, "GMcoordinates 2": 37.9583058, "name": "Raleigh-Boone Technical Center", "address": "11823 Coal River Road", "city": "Whitesville", "joinedAddress": "11823 Coal River Road , Whitesville, WV, 25209", "zip": 25209 }, "geometry": { "type": "Point", "coordinates": [ -81.5350867, 37.9583058 ] } },
{ "type": "Feature", "properties": { "county": "Kanawha", "GMcoordinates 1": -81.5376183, "GMcoordinates 2": 38.2320461, "name": "Du Pont Middle School", "address": "1 Panther Way", "city": "Belle", "joinedAddress": "1 Panther Way , Belle, WV, 25015", "zip": 25015 }, "geometry": { "type": "Point", "coordinates": [ -81.5376183, 38.2320461 ] } },
{ "type": "Feature", "properties": { "county": "Wood", "GMcoordinates 1": -81.5389659, "GMcoordinates 2": 39.325156, "name": "Jackson Middle School", "address": "1601 34th St", "city": "Vienna", "joinedAddress": "1601 34th St , Vienna, WV, 26105", "zip": 26105 }, "geometry": { "type": "Point", "coordinates": [ -81.5389659, 39.325156 ] } },
{ "type": "Feature", "properties": { "county": "Wood", "GMcoordinates 1": -81.5397113, "GMcoordinates 2": 39.3470656, "name": "Greenmont Elementary School", "address": "209 58th St", "city": "Vienna", "joinedAddress": "209 58th St , Vienna, WV, 26105", "zip": 26105 }, "geometry": { "type": "Point", "coordinates": [ -81.5397113, 39.3470656 ] } },
{ "type": "Feature", "properties": { "county": "Kanawha", "GMcoordinates 1": -81.5398014, "GMcoordinates 2": 38.2327788, "name": "Belle Elementary School", "address": "401 E 6th Street", "city": "Belle", "joinedAddress": "401 E 6th Street , Belle, WV, 25015", "zip": 25015 }, "geometry": { "type": "Point", "coordinates": [ -81.5398014, 38.2327788 ] } },
{ "type": "Feature", "properties": { "county": "Wood", "GMcoordinates 1": -81.5419015, "GMcoordinates 2": 39.266261, "name": "Jefferson Elementary Center", "address": "1103 Plum St", "city": "Parkersburg", "joinedAddress": "1103 Plum St , Parkersburg, WV, 26101", "zip": 26101 }, "geometry": { "type": "Point", "coordinates": [ -81.5419015, 39.266261 ] } },
{ "type": "Feature", "properties": { "county": "Wood", "GMcoordinates 1": -81.5425142, "GMcoordinates 2": 39.3313719, "name": "Vienna Elementary School", "address": "700 41st St", "city": "Vienna", "joinedAddress": "700 41st St , Vienna, WV, 26105", "zip": 26105 }, "geometry": { "type": "Point", "coordinates": [ -81.5425142, 39.3313719 ] } },
{ "type": "Feature", "properties": { "county": "Wood", "GMcoordinates 1": -81.5425646, "GMcoordinates 2": 39.2869681, "name": "Van Devender Middle School", "address": "918 31st St", "city": "Parkersburg", "joinedAddress": "918 31st St , Parkersburg, WV, 26104", "zip": 26104 }, "geometry": { "type": "Point", "coordinates": [ -81.5425646, 39.2869681 ] } },
{ "type": "Feature", "properties": { "county": "Wood", "GMcoordinates 1": -81.5446396, "GMcoordinates 2": 39.2755704, "name": "Mckinley Elementary School", "address": "1130 19th St", "city": "Parkersburg", "joinedAddress": "1130 19th St , Parkersburg, WV, 26101", "zip": 26101 }, "geometry": { "type": "Point", "coordinates": [ -81.5446396, 39.2755704 ] } },
{ "type": "Feature", "properties": { "county": "Wood", "GMcoordinates 1": -81.5448288, "GMcoordinates 2": 39.2785727, "name": "Parkersburg High School", "address": "2101 Dudley Ave", "city": "Parkersburg", "joinedAddress": "2101 Dudley Ave , Parkersburg, WV, 26101", "zip": 26101 }, "geometry": { "type": "Point", "coordinates": [ -81.5448288, 39.2785727 ] } },
{ "type": "Feature", "properties": { "county": "Wood", "GMcoordinates 1": -81.5489957, "GMcoordinates 2": 39.2436853, "name": "Parkersburg South High School", "address": "1511 Blizzard Dr", "city": "Parkersburg", "joinedAddress": "1511 Blizzard Dr , Parkersburg, WV, 26101", "zip": 26101 }, "geometry": { "type": "Point", "coordinates": [ -81.5489957, 39.2436853 ] } },
{ "type": "Feature", "properties": { "county": "Wood", "GMcoordinates 1": -81.549307, "GMcoordinates 2": 39.2421793, "name": "Wood Co Voc Tech Ctr", "address": "1515 Blizzard Dr", "city": "Parkersburg", "joinedAddress": "1515 Blizzard Dr , Parkersburg, WV, 26101", "zip": 26101 }, "geometry": { "type": "Point", "coordinates": [ -81.549307, 39.2421793 ] } },
{ "type": "Feature", "properties": { "county": "Wood", "GMcoordinates 1": -81.5515474, "GMcoordinates 2": 39.2379253, "name": "Gihon Elementary School", "address": "2000 Belmont Rd", "city": "Parkersburg", "joinedAddress": "2000 Belmont Rd , Parkersburg, WV, 26101", "zip": 26101 }, "geometry": { "type": "Point", "coordinates": [ -81.5515474, 39.2379253 ] } },
{ "type": "Feature", "properties": { "county": "Wood", "GMcoordinates 1": -81.5522914, "GMcoordinates 2": 39.3223417, "name": "Neale Elementary School", "address": "2305 Grand Central Ave", "city": "Vienna", "joinedAddress": "2305 Grand Central Ave , Vienna, WV, 26105", "zip": 26105 }, "geometry": { "type": "Point", "coordinates": [ -81.5522914, 39.3223417 ] } },
{ "type": "Feature", "properties": { "county": "Wood", "GMcoordinates 1": -81.5546034, "GMcoordinates 2": 39.2432678, "name": "Franklin Elementary Center", "address": "1511 Division St Ext", "city": "Parkersburg", "joinedAddress": "1511 Division St Ext , Parkersburg, WV, 26101", "zip": 26101 }, "geometry": { "type": "Point", "coordinates": [ -81.5546034, 39.2432678 ] } },
{ "type": "Feature", "properties": { "county": "Kanawha", "GMcoordinates 1": -81.5583881, "GMcoordinates 2": 38.3007452, "name": "Malden Elementary School", "address": "4001 Salinas Drive", "city": "Charleston", "joinedAddress": "4001 Salinas Drive , Charleston, WV, 25306", "zip": 25306 }, "geometry": { "type": "Point", "coordinates": [ -81.5583881, 38.3007452 ] } },
{ "type": "Feature", "properties": { "county": "Kanawha", "GMcoordinates 1": -81.562899, "GMcoordinates 2": 38.2895581, "name": "Carver Career Center", "address": "4799 Midland Dr", "city": "Charleston", "joinedAddress": "4799 Midland Dr , Charleston, WV, 25306", "zip": 25306 }, "geometry": { "type": "Point", "coordinates": [ -81.562899, 38.2895581 ] } },
{ "type": "Feature", "properties": { "county": "McDowell", "GMcoordinates 1": -81.5641281, "GMcoordinates 2": 37.4488145, "name": "Welch Elementary School", "address": "1235 Stewart Street", "city": "Welch", "joinedAddress": "1235 Stewart Street , Welch, WV, 24801", "zip": 24801 }, "geometry": { "type": "Point", "coordinates": [ -81.5641281, 37.4488145 ] } },
{ "type": "Feature", "properties": { "county": "Kanawha", "GMcoordinates 1": -81.5664886, "GMcoordinates 2": 38.2460696, "name": "Marmet Elementary School", "address": "408 94th St", "city": "Marmet", "joinedAddress": "408 94th St , Marmet, WV, 25315", "zip": 25315 }, "geometry": { "type": "Point", "coordinates": [ -81.5664886, 38.2460696 ] } },
{ "type": "Feature", "properties": { "county": "Kanawha", "GMcoordinates 1": -81.5703936, "GMcoordinates 2": 38.3965411, "name": "Elk Elementary Center", "address": "3320 Pennsylvania Ave", "city": "Charleston", "joinedAddress": "3320 Pennsylvania Ave , Charleston, WV, 25302", "zip": 25302 }, "geometry": { "type": "Point", "coordinates": [ -81.5703936, 38.3965411 ] } },
{ "type": "Feature", "properties": { "county": "McDowell", "GMcoordinates 1": -81.5757711, "GMcoordinates 2": 37.4387926, "name": "Mount View High School", "address": "960 Mount View Road", "city": "Welch", "joinedAddress": "960 Mount View Road , Welch, WV, 24801", "zip": 24801 }, "geometry": { "type": "Point", "coordinates": [ -81.5757711, 37.4387926 ] } },
{ "type": "Feature", "properties": { "county": "Wood", "GMcoordinates 1": -81.5758148, "GMcoordinates 2": 39.2520517, "name": "Lubeck Elementary School", "address": "206 Lubeck Rd", "city": "Parkersburg", "joinedAddress": "206 Lubeck Rd , Parkersburg, WV, 26101", "zip": 26101 }, "geometry": { "type": "Point", "coordinates": [ -81.5758148, 39.2520517 ] } },
{ "type": "Feature", "properties": { "county": "Kanawha", "GMcoordinates 1": -81.5767874, "GMcoordinates 2": 38.3720105, "name": "Capital High School", "address": "1500 Greenbrier St", "city": "Charleston", "joinedAddress": "1500 Greenbrier St , Charleston, WV, 25311", "zip": 25311 }, "geometry": { "type": "Point", "coordinates": [ -81.5767874, 38.3720105 ] } },
{ "type": "Feature", "properties": { "county": "Kanawha", "GMcoordinates 1": -81.5803354, "GMcoordinates 2": 38.3191508, "name": "Chamberlain Elementary School", "address": "4901 Venable Av S E", "city": "Charleston", "joinedAddress": "4901 Venable Av S E , Charleston, WV, 25304", "zip": 25304 }, "geometry": { "type": "Point", "coordinates": [ -81.5803354, 38.3191508 ] } },
{ "type": "Feature", "properties": { "county": "McDowell", "GMcoordinates 1": -81.5813805, "GMcoordinates 2": 37.434714, "name": "Phoenix Center", "address": "275 Virginia Avenue", "city": "Welch", "joinedAddress": "275 Virginia Avenue , Welch, WV, 24801", "zip": 24801 }, "geometry": { "type": "Point", "coordinates": [ -81.5813805, 37.434714 ] } },
{ "type": "Feature", "properties": { "county": "Kanawha", "GMcoordinates 1": -81.5868325, "GMcoordinates 2": 38.3245153, "name": "Horace Mann Middle School", "address": "4300 Maccorkle Avenue", "city": "Charleston", "joinedAddress": "4300 Maccorkle Avenue , Charleston, WV, 25304", "zip": 25304 }, "geometry": { "type": "Point", "coordinates": [ -81.5868325, 38.3245153 ] } },
{ "type": "Feature", "properties": { "county": "Kanawha", "GMcoordinates 1": -81.591973, "GMcoordinates 2": 38.350269, "name": "Ruffner Elementary School", "address": "809 Litz Drive", "city": "Charleston", "joinedAddress": "809 Litz Drive , Charleston, WV, 25311", "zip": 25311 }, "geometry": { "type": "Point", "coordinates": [ -81.591973, 38.350269 ] } },
{ "type": "Feature", "properties": { "county": "Kanawha", "GMcoordinates 1": -81.5937735, "GMcoordinates 2": 38.3900224, "name": "Shoals Elementary School", "address": "100 Dutch Rd", "city": "Charleston", "joinedAddress": "100 Dutch Rd , Charleston, WV, 25302", "zip": 25302 }, "geometry": { "type": "Point", "coordinates": [ -81.5937735, 38.3900224 ] } },
{ "type": "Feature", "properties": { "county": "Kanawha", "GMcoordinates 1": -81.5955627, "GMcoordinates 2": 38.329578, "name": "Kanawha City Elementary School", "address": "3601 Staunton Avenue Se", "city": "Charleston", "joinedAddress": "3601 Staunton Avenue Se , Charleston, WV, 25304", "zip": 25304 }, "geometry": { "type": "Point", "coordinates": [ -81.5955627, 38.329578 ] } },
{ "type": "Feature", "properties": { "county": "Wood", "GMcoordinates 1": -81.6160094, "GMcoordinates 2": 39.2596302, "name": "Blennerhassett Elementary School", "address": "448 Jewel Rd", "city": "Parkersburg", "joinedAddress": "448 Jewel Rd , Parkersburg, WV, 26101", "zip": 26101 }, "geometry": { "type": "Point", "coordinates": [ -81.6160094, 39.2596302 ] } },
{ "type": "Feature", "properties": { "county": "Wood", "GMcoordinates 1": -81.6166479, "GMcoordinates 2": 39.2593596, "name": "Blennerhassett Middle School", "address": "444 Jewel Rd", "city": "Parkersburg", "joinedAddress": "444 Jewel Rd , Parkersburg, WV, 26101", "zip": 26101 }, "geometry": { "type": "Point", "coordinates": [ -81.6166479, 39.2593596 ] } },
{ "type": "Feature", "properties": { "county": "Kanawha", "GMcoordinates 1": -81.6267249, "GMcoordinates 2": 38.343956, "name": "Piedmont Year-Round Education", "address": "203 Bradford Street", "city": "Charleston", "joinedAddress": "203 Bradford Street , Charleston, WV, 25301", "zip": 25301 }, "geometry": { "type": "Point", "coordinates": [ -81.6267249, 38.343956 ] } },
{ "type": "Feature", "properties": { "county": "Kanawha", "GMcoordinates 1": -81.629853, "GMcoordinates 2": 38.528963, "name": "Sissonville Elementary School", "address": "8324 Sissonville Drive", "city": "Sissonville", "joinedAddress": "8324 Sissonville Drive , Sissonville, WV, 25320", "zip": 25320 }, "geometry": { "type": "Point", "coordinates": [ -81.629853, 38.528963 ] } },
{ "type": "Feature", "properties": { "county": "Kanawha", "GMcoordinates 1": -81.6299222, "GMcoordinates 2": 38.35104, "name": "Garnet Career Center", "address": "422 Dickinson Street", "city": "Charleston", "joinedAddress": "422 Dickinson Street , Charleston, WV, 25301", "zip": 25301 }, "geometry": { "type": "Point", "coordinates": [ -81.6299222, 38.35104 ] } },
{ "type": "Feature", "properties": { "county": "Kanawha", "GMcoordinates 1": -81.6332859, "GMcoordinates 2": 38.3652026, "name": "Watts Elementary School", "address": "230 Costello St", "city": "Charleston", "joinedAddress": "230 Costello St , Charleston, WV, 25302", "zip": 25302 }, "geometry": { "type": "Point", "coordinates": [ -81.6332859, 38.3652026 ] } },
{ "type": "Feature", "properties": { "county": "Kanawha", "GMcoordinates 1": -81.6372582, "GMcoordinates 2": 38.3838867, "name": "Edgewood Elementary", "address": "550 Hawks Ridge", "city": "Charleston", "joinedAddress": "550 Hawks Ridge, Charleston, WV, 25302", "zip": 25302 }, "geometry": { "type": "Point", "coordinates": [ -81.6372582, 38.3838867 ] } },
{ "type": "Feature", "properties": { "county": "Kanawha", "GMcoordinates 1": -81.641459, "GMcoordinates 2": 38.3244967, "name": "Holz Elementary School", "address": "1505 Hampton Rd", "city": "Charleston", "joinedAddress": "1505 Hampton Rd , Charleston, WV, 25314", "zip": 25314 }, "geometry": { "type": "Point", "coordinates": [ -81.641459, 38.3244967 ] } },
{ "type": "Feature", "properties": { "county": "Kanawha", "GMcoordinates 1": -81.649518, "GMcoordinates 2": 38.3678017, "name": "Stonewall Jackson Middle School", "address": "812 Park Avenue", "city": "Charleston", "joinedAddress": "812 Park Avenue , Charleston, WV, 25302", "zip": 25302 }, "geometry": { "type": "Point", "coordinates": [ -81.649518, 38.3678017 ] } },
{ "type": "Feature", "properties": { "county": "Kanawha", "GMcoordinates 1": -81.6510612, "GMcoordinates 2": 38.3710492, "name": "J E Robins Elementary School", "address": "915 Beech Ave", "city": "Charleston", "joinedAddress": "915 Beech Ave , Charleston, WV, 25302", "zip": 25302 }, "geometry": { "type": "Point", "coordinates": [ -81.6510612, 38.3710492 ] } },
{ "type": "Feature", "properties": { "county": "Kanawha", "GMcoordinates 1": -81.654968, "GMcoordinates 2": 38.3630761, "name": "Glenwood Elementary School", "address": "810 Grant St", "city": "Charleston", "joinedAddress": "810 Grant St , Charleston, WV, 25302", "zip": 25302 }, "geometry": { "type": "Point", "coordinates": [ -81.654968, 38.3630761 ] } },
{ "type": "Feature", "properties": { "county": "Kanawha", "GMcoordinates 1": -81.6568363, "GMcoordinates 2": 38.3343177, "name": "George Washington High School", "address": "1522 Tennis Club Rd", "city": "Charleston", "joinedAddress": "1522 Tennis Club Rd , Charleston, WV, 25314", "zip": 25314 }, "geometry": { "type": "Point", "coordinates": [ -81.6568363, 38.3343177 ] } },
{ "type": "Feature", "properties": { "county": "Kanawha", "GMcoordinates 1": -81.6576312, "GMcoordinates 2": 38.3377448, "name": "Overbrook Elementary School", "address": "218 Overbrook Rd", "city": "Charleston", "joinedAddress": "218 Overbrook Rd , Charleston, WV, 25314", "zip": 25314 }, "geometry": { "type": "Point", "coordinates": [ -81.6576312, 38.3377448 ] } },
{ "type": "Feature", "properties": { "county": "Kanawha", "GMcoordinates 1": -81.6593844, "GMcoordinates 2": 38.3272158, "name": "John Adams Middle School", "address": "2002 Presidential Dr", "city": "Charleston", "joinedAddress": "2002 Presidential Dr , Charleston, WV, 25314", "zip": 25314 }, "geometry": { "type": "Point", "coordinates": [ -81.6593844, 38.3272158 ] } },
{ "type": "Feature", "properties": { "county": "Kanawha", "GMcoordinates 1": -81.6613803, "GMcoordinates 2": 38.36448, "name": "Mary C. Snow West Side Elementary School", "address": "100 Florida Street", "city": "Charleston", "joinedAddress": "100 Florida Street , Charleston, WV, 25302", "zip": 25302 }, "geometry": { "type": "Point", "coordinates": [ -81.6613803, 38.36448 ] } },
{ "type": "Feature", "properties": { "county": "Kanawha", "GMcoordinates 1": -81.6622719, "GMcoordinates 2": 38.380167, "name": "Chandler Elementary School", "address": "1900 School Street", "city": "Charleston", "joinedAddress": "1900 School Street , Charleston, WV, 25312", "zip": 25312 }, "geometry": { "type": "Point", "coordinates": [ -81.6622719, 38.380167 ] } },
{ "type": "Feature", "properties": { "county": "Kanawha", "GMcoordinates 1": -81.6622719, "GMcoordinates 2": 38.380167, "name": "Chandler Academy", "address": "1900 School Street", "city": "Charleston", "joinedAddress": "1900 School Street, Charleston, WV, 25312", "zip": 25312 }, "geometry": { "type": "Point", "coordinates": [ -81.6622719, 38.380167 ] } },
{ "type": "Feature", "properties": { "county": "Kanawha", "GMcoordinates 1": -81.6678096, "GMcoordinates 2": 38.4649799, "name": "Sissonville Middle School", "address": "100 Middle School Lane", "city": "Charleston", "joinedAddress": "100 Middle School Lane , Charleston, WV, 25312", "zip": 25312 }, "geometry": { "type": "Point", "coordinates": [ -81.6678096, 38.4649799 ] } },
{ "type": "Feature", "properties": { "county": "Kanawha", "GMcoordinates 1": -81.6703656, "GMcoordinates 2": 38.353107, "name": "Weberwood Elementary School", "address": "732 Gordon Road", "city": "So. Charleston", "joinedAddress": "732 Gordon Road , So. Charleston, WV, 25303", "zip": 25303 }, "geometry": { "type": "Point", "coordinates": [ -81.6703656, 38.353107 ] } },
{ "type": "Feature", "properties": { "county": "Kanawha", "GMcoordinates 1": -81.670879, "GMcoordinates 2": 38.4805237, "name": "Flinn Elementary School", "address": "2006 Mcclure Parkway", "city": "Charleston", "joinedAddress": "2006 Mcclure Parkway , Charleston, WV, 25312", "zip": 25312 }, "geometry": { "type": "Point", "coordinates": [ -81.670879, 38.480523700000013 ] } },
{ "type": "Feature", "properties": { "county": "Wyoming", "GMcoordinates 1": -81.6709953, "GMcoordinates 2": 37.7531799, "name": "Road Branch Elementary & Middle School", "address": "1165 Huff Creek Road, HC 80 Box 422", "city": "Cyclone", "joinedAddress": "1165 Huff Creek Road, HC 80 Box 422, Cyclone, WV, 24827", "zip": 24827 }, "geometry": { "type": "Point", "coordinates": [ -81.6709953, 37.7531799 ] } },
{ "type": "Feature", "properties": { "county": "Kanawha", "GMcoordinates 1": -81.6725903, "GMcoordinates 2": 38.4749352, "name": "Sissonville High School", "address": "6100 Sissonville Dr.", "city": "Charleston", "joinedAddress": "6100 Sissonville Dr. , Charleston, WV, 25312", "zip": 25312 }, "geometry": { "type": "Point", "coordinates": [ -81.6725903, 38.4749352 ] } },
{ "type": "Feature", "properties": { "county": "Wyoming", "GMcoordinates 1": -81.6729135, "GMcoordinates 2": 37.5898502, "name": "Baileysville Elementary & Middle School", "address": "Drawer 409 11618 R.d. Bailey Highway", "city": "Brenton", "joinedAddress": "Drawer 409 11618 R.d. Bailey Highway, Brenton, WV, 24818", "zip": 24818 }, "geometry": { "type": "Point", "coordinates": [ -81.6729135, 37.5898502 ] } },
{ "type": "Feature", "properties": { "county": "McDowell", "GMcoordinates 1": -81.6740799, "GMcoordinates 2": 37.304933, "name": "Southside K-8", "address": "Po Box 730", "city": "War", "joinedAddress": "Po Box 730 , War, WV, 24892", "zip": 24892 }, "geometry": { "type": "Point", "coordinates": [ -81.6740799, 37.304933 ] } },
{ "type": "Feature", "properties": { "county": "Kanawha", "GMcoordinates 1": -81.681378, "GMcoordinates 2": 38.381726, "name": "Grandview Elementary School", "address": "959 Woodward Drive", "city": "Charleston", "joinedAddress": "959 Woodward Drive , Charleston, WV, 25312", "zip": 25312 }, "geometry": { "type": "Point", "coordinates": [ -81.681378, 38.381726 ] } },
{ "type": "Feature", "properties": { "county": "Kanawha", "GMcoordinates 1": -81.6832758, "GMcoordinates 2": 38.3385611, "name": "Kenna Elementary School", "address": "198 Eureka Rd", "city": "Charleston", "joinedAddress": "198 Eureka Rd , Charleston, WV, 25314", "zip": 25314 }, "geometry": { "type": "Point", "coordinates": [ -81.6832758, 38.3385611 ] } },
{ "type": "Feature", "properties": { "county": "Kanawha", "GMcoordinates 1": -81.6852301, "GMcoordinates 2": 38.3567209, "name": "Montrose Elementary School", "address": "631 Montrose Drive", "city": "So. Charleston", "joinedAddress": "631 Montrose Drive , So. Charleston, WV, 25303", "zip": 25303 }, "geometry": { "type": "Point", "coordinates": [ -81.6852301, 38.3567209 ] } },
{ "type": "Feature", "properties": { "county": "Kanawha", "GMcoordinates 1": -81.691468, "GMcoordinates 2": 38.3661634, "name": "South Charleston Middle School", "address": "400 Third Avenue", "city": "South Charleston", "joinedAddress": "400 Third Avenue , South Charleston, WV, 25303", "zip": 25303 }, "geometry": { "type": "Point", "coordinates": [ -81.691468, 38.3661634 ] } },
{ "type": "Feature", "properties": { "county": "McDowell", "GMcoordinates 1": -81.7041111, "GMcoordinates 2": 37.4576389, "name": "Fall River Elementary School", "address": "Route 7 Drawer 70", "city": "Big Sandy", "joinedAddress": "Route 7 Drawer 70 , Big Sandy, WV, 24816", "zip": 24816 }, "geometry": { "type": "Point", "coordinates": [ -81.7041111, 37.457638900000013 ] } },
{ "type": "Feature", "properties": { "county": "Kanawha", "GMcoordinates 1": -81.715917, "GMcoordinates 2": 38.3875993, "name": "Tyler Middle School", "address": "4277 West Washington Street", "city": "Charleston", "joinedAddress": "4277 West Washington Street , Charleston, WV, 25313", "zip": 25313 }, "geometry": { "type": "Point", "coordinates": [ -81.715917, 38.3875993 ] } },
{ "type": "Feature", "properties": { "county": "Kanawha", "GMcoordinates 1": -81.724538, "GMcoordinates 2": 38.3453609, "name": "Richmond Elementary School", "address": "4620 Spring Hill Avenue", "city": "South Charleston", "joinedAddress": "4620 Spring Hill Avenue , South Charleston, WV, 25309", "zip": 25309 }, "geometry": { "type": "Point", "coordinates": [ -81.724538, 38.3453609 ] } },
{ "type": "Feature", "properties": { "county": "Kanawha", "GMcoordinates 1": -81.735449, "GMcoordinates 2": 38.348251, "name": "South Charleston High School", "address": "1 Eagle Way", "city": "South Charleston", "joinedAddress": "1 Eagle Way , South Charleston, WV, 25309", "zip": 25309 }, "geometry": { "type": "Point", "coordinates": [ -81.735449, 38.348251 ] } },
{ "type": "Feature", "properties": { "county": "Kanawha", "GMcoordinates 1": -81.735788, "GMcoordinates 2": 38.352637, "name": "Bridgeview Elementary School", "address": "5100 Ohio Street", "city": "South Charleston", "joinedAddress": "5100 Ohio Street , South Charleston, WV, 25309", "zip": 25309 }, "geometry": { "type": "Point", "coordinates": [ -81.735788, 38.352637 ] } },
{ "type": "Feature", "properties": { "county": "Kanawha", "GMcoordinates 1": -81.743146, "GMcoordinates 2": 38.3594428, "name": "Dunbar Intermediate Center", "address": "1330 Myers Avenue", "city": "Dunbar", "joinedAddress": "1330 Myers Avenue , Dunbar, WV, 25064", "zip": 25064 }, "geometry": { "type": "Point", "coordinates": [ -81.743146, 38.3594428 ] } },
{ "type": "Feature", "properties": { "county": "Kanawha", "GMcoordinates 1": -81.7539174, "GMcoordinates 2": 38.3623581, "name": "Dunbar Primary Center", "address": "2401 Myers Avenue", "city": "Dunbar", "joinedAddress": "2401 Myers Avenue , Dunbar, WV, 25064", "zip": 25064 }, "geometry": { "type": "Point", "coordinates": [ -81.7539174, 38.3623581 ] } },
{ "type": "Feature", "properties": { "county": "Kanawha", "GMcoordinates 1": -81.7540336, "GMcoordinates 2": 38.3672514, "name": "Ben Franklin Career Center", "address": "500 28th Street", "city": "Dunbar", "joinedAddress": "500 28th Street , Dunbar, WV, 25064", "zip": 25064 }, "geometry": { "type": "Point", "coordinates": [ -81.7540336, 38.3672514 ] } },
{ "type": "Feature", "properties": { "county": "Kanawha", "GMcoordinates 1": -81.7556178, "GMcoordinates 2": 38.3652734, "name": "Dunbar Middle School", "address": "325 27th Street", "city": "Dunbar", "joinedAddress": "325 27th Street , Dunbar, WV, 25064", "zip": 25064 }, "geometry": { "type": "Point", "coordinates": [ -81.7556178, 38.3652734 ] } },
{ "type": "Feature", "properties": { "county": "Kanawha", "GMcoordinates 1": -81.7564522, "GMcoordinates 2": 38.3729711, "name": "Shawnee Community Center", "address": "142 Marshall Avenue", "city": "Dunbar", "joinedAddress": "142 Marshall Avenue , Dunbar, WV, 25064", "zip": 25064 }, "geometry": { "type": "Point", "coordinates": [ -81.7564522, 38.3729711 ] } },
{ "type": "Feature", "properties": { "county": "Kanawha", "GMcoordinates 1": -81.7713549, "GMcoordinates 2": 38.4312865, "name": "Point Harmony Elementary School", "address": "5312 Big Tyler Road", "city": "Cross Lanes", "joinedAddress": "5312 Big Tyler Road , Cross Lanes, WV, 25313", "zip": 25313 }, "geometry": { "type": "Point", "coordinates": [ -81.7713549, 38.4312865 ] } },
{ "type": "Feature", "properties": { "county": "Kanawha", "GMcoordinates 1": -81.777059, "GMcoordinates 2": 38.270804, "name": "Alum Creek Elementary School", "address": "Rt 7 Box 279a", "city": "So Charleston", "joinedAddress": "Rt 7 Box 279a , So Charleston, WV, 25309", "zip": 25309 }, "geometry": { "type": "Point", "coordinates": [ -81.777059, 38.270804 ] } },
{ "type": "Feature", "properties": { "county": "Kanawha", "GMcoordinates 1": -81.7830418, "GMcoordinates 2": 38.4259847, "name": "Andrew Jackson Middle School", "address": "5445 Big Tyler Road", "city": "Charleston", "joinedAddress": "5445 Big Tyler Road , Charleston, WV, 25313", "zip": 25313 }, "geometry": { "type": "Point", "coordinates": [ -81.7830418, 38.4259847 ] } },
{ "type": "Feature", "properties": { "county": "McDowell", "GMcoordinates 1": -81.7842547, "GMcoordinates 2": 37.4130236, "name": "Sandy River Middle School", "address": "P.o. Box 419", "city": "Avondale", "joinedAddress": "P.o. Box 419 , Avondale, WV, 24811", "zip": 24811 }, "geometry": { "type": "Point", "coordinates": [ -81.7842547, 37.4130236 ] } },
{ "type": "Feature", "properties": { "county": "Kanawha", "GMcoordinates 1": -81.7888692, "GMcoordinates 2": 38.37571, "name": "George C. Weimer Elementary School", "address": "3040 Kanawha Terrace", "city": "St. Albans", "joinedAddress": "3040 Kanawha Terrace , St. Albans, WV, 25177", "zip": 25177 }, "geometry": { "type": "Point", "coordinates": [ -81.7888692, 38.37571 ] } },
{ "type": "Feature", "properties": { "county": "Kanawha", "GMcoordinates 1": -81.7897519, "GMcoordinates 2": 38.42118, "name": "Cross Lanes Elementary School", "address": "5525 Big Tyler Road", "city": "Charleston", "joinedAddress": "5525 Big Tyler Road , Charleston, WV, 25313", "zip": 25313 }, "geometry": { "type": "Point", "coordinates": [ -81.7897519, 38.42118 ] } },
{ "type": "Feature", "properties": { "county": "Kanawha", "GMcoordinates 1": -81.790656, "GMcoordinates 2": 38.375632, "name": "Mckinley Middle School", "address": "3000 Kanawha Terrace", "city": "St. Albans", "joinedAddress": "3000 Kanawha Terrace , St. Albans, WV, 25177", "zip": 25177 }, "geometry": { "type": "Point", "coordinates": [ -81.790656, 38.375632 ] } },
{ "type": "Feature", "properties": { "county": "McDowell", "GMcoordinates 1": -81.7980489, "GMcoordinates 2": 37.3507725, "name": "Bradshaw Elementary School", "address": "P.o. Box 40", "city": "Bradshaw", "joinedAddress": "P.o. Box 40 , Bradshaw, WV, 24817", "zip": 24817 }, "geometry": { "type": "Point", "coordinates": [ -81.7980489, 37.3507725 ] } },
{ "type": "Feature", "properties": { "county": "McDowell", "GMcoordinates 1": -81.8032638, "GMcoordinates 2": 37.3579867, "name": "River View High School", "address": "512 Mountaineer Highway", "city": "Bradshaw", "joinedAddress": "512 Mountaineer Highway , Bradshaw, WV, 24817", "zip": 24817 }, "geometry": { "type": "Point", "coordinates": [ -81.8032638, 37.3579867 ] } },
{ "type": "Feature", "properties": { "county": "Wyoming", "GMcoordinates 1": -81.8068693, "GMcoordinates 2": 37.5856022, "name": "Huff Cons Elementary & Middle School", "address": "374 Lizard Creek Rd, Drawer E", "city": "Hanover", "joinedAddress": "374 Lizard Creek Rd, Drawer E, Hanover, WV, 24839", "zip": 24839 }, "geometry": { "type": "Point", "coordinates": [ -81.8068693, 37.5856022 ] } },
{ "type": "Feature", "properties": { "county": "Kanawha", "GMcoordinates 1": -81.8118956, "GMcoordinates 2": 38.3789803, "name": "Saint Albans High School", "address": "2100 Kanawha Terrace", "city": "St. Albans", "joinedAddress": "2100 Kanawha Terrace , St. Albans, WV, 25177", "zip": 25177 }, "geometry": { "type": "Point", "coordinates": [ -81.8118956, 38.378980299999988 ] } },
{ "type": "Feature", "properties": { "county": "Kanawha", "GMcoordinates 1": -81.812957, "GMcoordinates 2": 38.3855708, "name": "Alban Elementary School", "address": "2030 Harrison Avenue", "city": "St. Albans", "joinedAddress": "2030 Harrison Avenue , St. Albans, WV, 25177", "zip": 25177 }, "geometry": { "type": "Point", "coordinates": [ -81.812957, 38.3855708 ] } },
{ "type": "Feature", "properties": { "county": "Putnam", "GMcoordinates 1": -81.8141755, "GMcoordinates 2": 38.4722971, "name": "Poca Middle School", "address": "P.o. Box 647 Route 62 South", "city": "Poca", "joinedAddress": "P.o. Box 647 Route 62 South, Poca, WV, 25159", "zip": 25159 }, "geometry": { "type": "Point", "coordinates": [ -81.8141755, 38.4722971 ] } },
{ "type": "Feature", "properties": { "county": "Putnam", "GMcoordinates 1": -81.8141755, "GMcoordinates 2": 38.4722971, "name": "Poca Elementary", "address": "P.o. Box 430 Route 62 South", "city": "Poca", "joinedAddress": "P.o. Box 430 Route 62 South, Poca, WV, 25159", "zip": 25159 }, "geometry": { "type": "Point", "coordinates": [ -81.8141755, 38.4722971 ] } },
{ "type": "Feature", "properties": { "county": "Putnam", "GMcoordinates 1": -81.8191105, "GMcoordinates 2": 38.4476357, "name": "Rock Branch Elementary", "address": "4616 1st Avenue", "city": "Nitro", "joinedAddress": "4616 1st Avenue , Nitro, WV, 25143", "zip": 25143 }, "geometry": { "type": "Point", "coordinates": [ -81.8191105, 38.4476357 ] } },
{ "type": "Feature", "properties": { "county": "McDowell", "GMcoordinates 1": -81.8213349, "GMcoordinates 2": 37.466634, "name": "Iaeger Elementary School", "address": "P.o. Box 359 Waters Street", "city": "Iaeger", "joinedAddress": "P.o. Box 359 Waters Street, Iaeger, WV, 24844", "zip": 24844 }, "geometry": { "type": "Point", "coordinates": [ -81.8213349, 37.466634 ] } },
{ "type": "Feature", "properties": { "county": "Kanawha", "GMcoordinates 1": -81.8315299, "GMcoordinates 2": 38.382825, "name": "Central Elementary School", "address": "900 Helene Street", "city": "St. Albans", "joinedAddress": "900 Helene Street , St. Albans, WV, 25177", "zip": 25177 }, "geometry": { "type": "Point", "coordinates": [ -81.8315299, 38.382825 ] } },
{ "type": "Feature", "properties": { "county": "Lincoln", "GMcoordinates 1": -81.8363011, "GMcoordinates 2": 38.2607881, "name": "Midway Elementary School", "address": "267 Midway Road", "city": "Alum Creek", "joinedAddress": "267 Midway Road, Alum Creek, WV, 25003", "zip": 25003 }, "geometry": { "type": "Point", "coordinates": [ -81.8363011, 38.2607881 ] } },
{ "type": "Feature", "properties": { "county": "Kanawha", "GMcoordinates 1": -81.8373357, "GMcoordinates 2": 38.3686832, "name": "Lakewood Elementary School", "address": "2089 Lakewood Drive", "city": "St. Albans", "joinedAddress": "2089 Lakewood Drive , St. Albans, WV, 25177", "zip": 25177 }, "geometry": { "type": "Point", "coordinates": [ -81.8373357, 38.3686832 ] } },
{ "type": "Feature", "properties": { "county": "Kanawha", "GMcoordinates 1": -81.8404091, "GMcoordinates 2": 38.4204528, "name": "Nitro Elementary School", "address": "1921 19th Street", "city": "Nitro", "joinedAddress": "1921 19th Street , Nitro, WV, 25143", "zip": 25143 }, "geometry": { "type": "Point", "coordinates": [ -81.8404091, 38.4204528 ] } },
{ "type": "Feature", "properties": { "county": "Kanawha", "GMcoordinates 1": -81.8419873, "GMcoordinates 2": 38.3732791, "name": "Hayes Middle School", "address": "830 Strawberry Road", "city": "St. Albans", "joinedAddress": "830 Strawberry Road , St. Albans, WV, 25177", "zip": 25177 }, "geometry": { "type": "Point", "coordinates": [ -81.8419873, 38.3732791 ] } },
{ "type": "Feature", "properties": { "county": "Kanawha", "GMcoordinates 1": -81.8453229, "GMcoordinates 2": 38.419258, "name": "Nitro High School", "address": "1300 Park Avenue", "city": "Nitro", "joinedAddress": "1300 Park Avenue , Nitro, WV, 25143", "zip": 25143 }, "geometry": { "type": "Point", "coordinates": [ -81.8453229, 38.419258 ] } },
{ "type": "Feature", "properties": { "county": "Logan", "GMcoordinates 1": -81.8497567, "GMcoordinates 2": 37.7653234, "name": "Buffalo Elementary School", "address": "Po Box 310", "city": "Accoville", "joinedAddress": "Po Box 310 , Accoville, WV, 25606", "zip": 25606 }, "geometry": { "type": "Point", "coordinates": [ -81.8497567, 37.7653234 ] } },
{ "type": "Feature", "properties": { "county": "Kanawha", "GMcoordinates 1": -81.856883, "GMcoordinates 2": 38.400735, "name": "Anne Bailey Elementary School", "address": "405 Winfield Road", "city": "St. Albans", "joinedAddress": "405 Winfield Road , St. Albans, WV, 25177", "zip": 25177 }, "geometry": { "type": "Point", "coordinates": [ -81.856883, 38.400735 ] } },
{ "type": "Feature", "properties": { "county": "Kanawha", "GMcoordinates 1": -81.8606821, "GMcoordinates 2": 38.3232547, "name": "Andrews Heights Elementary School", "address": "P O Box 340", "city": "Tornado", "joinedAddress": "P O Box 340 , Tornado, WV, 25202", "zip": 25202 }, "geometry": { "type": "Point", "coordinates": [ -81.8606821, 38.3232547 ] } },
{ "type": "Feature", "properties": { "county": "Putnam", "GMcoordinates 1": -81.8619197, "GMcoordinates 2": 38.536232, "name": "Hometown Elementary", "address": "P.o. Box 249 Route 62 North", "city": "Hometown", "joinedAddress": "P.o. Box 249 Route 62 North, Hometown, WV, 25109", "zip": 25109 }, "geometry": { "type": "Point", "coordinates": [ -81.8619197, 38.536232 ] } },
{ "type": "Feature", "properties": { "county": "Putnam", "GMcoordinates 1": -81.8664331, "GMcoordinates 2": 38.4655985, "name": "Eastbrook Elementary School", "address": "1600 Bills Creek Road", "city": "Winfield", "joinedAddress": "1600 Bills Creek Road , Winfield, WV, 25213", "zip": 25213 }, "geometry": { "type": "Point", "coordinates": [ -81.8664331, 38.4655985 ] } },
{ "type": "Feature", "properties": { "county": "Logan", "GMcoordinates 1": -81.8748159, "GMcoordinates 2": 37.7345366, "name": "Man Senior High School", "address": "800 East Mcdonald Avenue", "city": "Man", "joinedAddress": "800 East Mcdonald Avenue , Man, WV, 25635", "zip": 25635 }, "geometry": { "type": "Point", "coordinates": [ -81.8748159, 37.7345366 ] } },
{ "type": "Feature", "properties": { "county": "Logan", "GMcoordinates 1": -81.8766558, "GMcoordinates 2": 37.7386318, "name": "South Man Elementary School", "address": "301 East Mcdonald Avenue", "city": "Man", "joinedAddress": "301 East Mcdonald Avenue , Man, WV, 25635", "zip": 25635 }, "geometry": { "type": "Point", "coordinates": [ -81.8766558, 37.7386318 ] } },
{ "type": "Feature", "properties": { "county": "Putnam", "GMcoordinates 1": -81.8782689, "GMcoordinates 2": 38.538443, "name": "Winfield High School", "address": "3022 Winfield Road", "city": "Winfield", "joinedAddress": "3022 Winfield Road , Winfield, WV, 25213", "zip": 25213 }, "geometry": { "type": "Point", "coordinates": [ -81.8782689, 38.538443 ] } },
{ "type": "Feature", "properties": { "county": "Mingo", "GMcoordinates 1": -81.8818236, "GMcoordinates 2": 37.6186173, "name": "Gilbert Elementary", "address": "Rt. 52 Elementary School Dr.", "city": "Gilbert", "joinedAddress": "Rt. 52 Elementary School Dr. , Gilbert, WV, 25621", "zip": 25621 }, "geometry": { "type": "Point", "coordinates": [ -81.8818236, 37.6186173 ] } },
{ "type": "Feature", "properties": { "county": "Putnam", "GMcoordinates 1": -81.8889311, "GMcoordinates 2": 38.5353507, "name": "Winfield Middle School", "address": "3280 Winfield Road", "city": "Winfield", "joinedAddress": "3280 Winfield Road , Winfield, WV, 25213", "zip": 25213 }, "geometry": { "type": "Point", "coordinates": [ -81.8889311, 38.5353507 ] } },
{ "type": "Feature", "properties": { "county": "Putnam", "GMcoordinates 1": -81.8950682, "GMcoordinates 2": 38.5307242, "name": "Winfield Elementary", "address": "2 Wall Street", "city": "Winfield", "joinedAddress": "2 Wall Street , Winfield, WV, 25213", "zip": 25213 }, "geometry": { "type": "Point", "coordinates": [ -81.895068200000011, 38.5307242 ] } },
{ "type": "Feature", "properties": { "county": "Putnam", "GMcoordinates 1": -81.910465, "GMcoordinates 2": 38.448205, "name": "Scott Teays Elementary", "address": "4308 Teays Valley Road", "city": "Scott Depot", "joinedAddress": "4308 Teays Valley Road , Scott Depot, WV, 25560", "zip": 25560 }, "geometry": { "type": "Point", "coordinates": [ -81.910465, 38.448205 ] } },
{ "type": "Feature", "properties": { "county": "Mingo", "GMcoordinates 1": -81.9115556, "GMcoordinates 2": 37.6358889, "name": "Gilbert High School", "address": "100 Lion Drive", "city": "Gilbert", "joinedAddress": "100 Lion Drive , Gilbert, WV, 25621", "zip": 25621 }, "geometry": { "type": "Point", "coordinates": [ -81.9115556, 37.6358889 ] } },
{ "type": "Feature", "properties": { "county": "Mingo", "GMcoordinates 1": -81.9115556, "GMcoordinates 2": 37.6358889, "name": "Gilbert Middle School", "address": "100 Lion Drive", "city": "Gilbert", "joinedAddress": "100 Lion Drive , Gilbert, WV, 25621", "zip": 25621 }, "geometry": { "type": "Point", "coordinates": [ -81.9115556, 37.6358889 ] } },
{ "type": "Feature", "properties": { "county": "Putnam", "GMcoordinates 1": -81.9212848, "GMcoordinates 2": 38.5334092, "name": "George Washington Middle School", "address": "P.o. Box 660 Route 62 North", "city": "Eleanor", "joinedAddress": "P.o. Box 660 Route 62 North, Eleanor, WV, 25070", "zip": 25070 }, "geometry": { "type": "Point", "coordinates": [ -81.9212848, 38.5334092 ] } },
{ "type": "Feature", "properties": { "county": "Putnam", "GMcoordinates 1": -81.9212848, "GMcoordinates 2": 38.5334092, "name": "George Washington Elementary School", "address": "P.o. Box 680 Route 62 North", "city": "Eleanor", "joinedAddress": "P.o. Box 680 Route 62 North, Eleanor, WV, 25070", "zip": 25070 }, "geometry": { "type": "Point", "coordinates": [ -81.9212848, 38.5334092 ] } },
{ "type": "Feature", "properties": { "county": "Putnam", "GMcoordinates 1": -81.9235564, "GMcoordinates 2": 38.5349716, "name": "Putnam Career & Technical Center", "address": "P.o. Box 640 300 Roosevelt Bldv", "city": "Eleanor", "joinedAddress": "P.o. Box 640 300 Roosevelt Bldv, Eleanor, WV, 25070", "zip": 25070 }, "geometry": { "type": "Point", "coordinates": [ -81.9235564, 38.5349716 ] } },
{ "type": "Feature", "properties": { "county": "Logan", "GMcoordinates 1": -81.9426074, "GMcoordinates 2": 37.8268911, "name": "Ralph R. Willis Vocational Center", "address": "Three Mile Curve Po Box 1747", "city": "Logan", "joinedAddress": "Three Mile Curve Po Box 1747, Logan, WV, 25601", "zip": 25601 }, "geometry": { "type": "Point", "coordinates": [ -81.9426074, 37.8268911 ] } },
{ "type": "Feature", "properties": { "county": "Putnam", "GMcoordinates 1": -81.9429476, "GMcoordinates 2": 38.4470558, "name": "Mountain View Elementary School", "address": "3967 Teays Valley Road", "city": "Hurricane", "joinedAddress": "3967 Teays Valley Road , Hurricane, WV, 25526", "zip": 25526 }, "geometry": { "type": "Point", "coordinates": [ -81.9429476, 38.4470558 ] } },
{ "type": "Feature", "properties": { "county": "Mason", "GMcoordinates 1": -81.9572479, "GMcoordinates 2": 38.7481123, "name": "Leon Elementary School", "address": "138 Aylor Street", "city": "Leon", "joinedAddress": "138 Aylor Street , Leon, WV, 25123", "zip": 25123 }, "geometry": { "type": "Point", "coordinates": [ -81.9572479, 38.7481123 ] } },
{ "type": "Feature", "properties": { "county": "Mason", "GMcoordinates 1": -81.9684821, "GMcoordinates 2": 38.985761, "name": "New Haven Elementary School", "address": "P.o. Box 989", "city": "New Haven", "joinedAddress": "P.o. Box 989 , New Haven, WV, 25265", "zip": 25265 }, "geometry": { "type": "Point", "coordinates": [ -81.9684821, 38.985761 ] } },
{ "type": "Feature", "properties": { "county": "Putnam", "GMcoordinates 1": -81.9728282, "GMcoordinates 2": 38.4463223, "name": "West Teays Elementary", "address": "3676 Teays Vly Road", "city": "Hurricane", "joinedAddress": "3676 Teays Vly Road , Hurricane, WV, 25526", "zip": 25526 }, "geometry": { "type": "Point", "coordinates": [ -81.9728282, 38.4463223 ] } },
{ "type": "Feature", "properties": { "county": "Putnam", "GMcoordinates 1": -81.9915782, "GMcoordinates 2": 38.6057368, "name": "Buffalo High School", "address": "3317 Buffalo Road", "city": "Buffalo", "joinedAddress": "3317 Buffalo Road , Buffalo, WV, 25033", "zip": 25033 }, "geometry": { "type": "Point", "coordinates": [ -81.9915782, 38.6057368 ] } },
{ "type": "Feature", "properties": { "county": "Lincoln", "GMcoordinates 1": -81.993031, "GMcoordinates 2": 38.238749, "name": "Duval Pk-8", "address": "5304 Straight Fork", "city": "Griffithsville", "joinedAddress": "5304 Straight Fork, Griffithsville, WV, 25521", "zip": 25521 }, "geometry": { "type": "Point", "coordinates": [ -81.993031, 38.238749 ] } },
{ "type": "Feature", "properties": { "county": "Logan", "GMcoordinates 1": -81.9933508, "GMcoordinates 2": 37.8953677, "name": "Justice Elementary School", "address": "407 Circle Dirve", "city": "Logan", "joinedAddress": "407 Circle Dirve , Logan, WV, 25601", "zip": 25601 }, "geometry": { "type": "Point", "coordinates": [ -81.9933508, 37.8953677 ] } },
{ "type": "Feature", "properties": { "county": "Logan", "GMcoordinates 1": -81.9950663, "GMcoordinates 2": 37.8511408, "name": "Logan Elementary School", "address": "Midelburg Island", "city": "Logan", "joinedAddress": "Midelburg Island , Logan, WV, 25601", "zip": 25601 }, "geometry": { "type": "Point", "coordinates": [ -81.9950663, 37.8511408 ] } },
{ "type": "Feature", "properties": { "county": "Logan", "GMcoordinates 1": -81.9955017, "GMcoordinates 2": 37.8518548, "name": "Logan Senior High School", "address": "1 Wildcat Way", "city": "Logan", "joinedAddress": "1 Wildcat Way , Logan, WV, 25601", "zip": 25601 }, "geometry": { "type": "Point", "coordinates": [ -81.9955017, 37.8518548 ] } },
{ "type": "Feature", "properties": { "county": "Logan", "GMcoordinates 1": -81.9959825, "GMcoordinates 2": 37.8503511, "name": "Logan Middle School", "address": "14 Wildcat Way", "city": "Logan", "joinedAddress": "14 Wildcat Way , Logan, WV, 25601", "zip": 25601 }, "geometry": { "type": "Point", "coordinates": [ -81.9959825, 37.8503511 ] } },
{ "type": "Feature", "properties": { "county": "Putnam", "GMcoordinates 1": -82.0058466, "GMcoordinates 2": 38.437667, "name": "Hurricane High School", "address": "3350 Teays Valley Road", "city": "Hurricane", "joinedAddress": "3350 Teays Valley Road , Hurricane, WV, 25526", "zip": 25526 }, "geometry": { "type": "Point", "coordinates": [ -82.0058466, 38.437667 ] } },
{ "type": "Feature", "properties": { "county": "Putnam", "GMcoordinates 1": -82.0067622, "GMcoordinates 2": 38.4126564, "name": "Lakeside Elementary", "address": "2550 Us Rt 60", "city": "Hurricane", "joinedAddress": "2550 Us Rt 60 , Hurricane, WV, 25526", "zip": 25526 }, "geometry": { "type": "Point", "coordinates": [ -82.006762200000011, 38.4126564 ] } },
{ "type": "Feature", "properties": { "county": "Putnam", "GMcoordinates 1": -82.0192376, "GMcoordinates 2": 38.4282373, "name": "Hurricane Middle", "address": "518 Midland Trail", "city": "Hurricane", "joinedAddress": "518 Midland Trail , Hurricane, WV, 25526", "zip": 25526 }, "geometry": { "type": "Point", "coordinates": [ -82.0192376, 38.4282373 ] } },
{ "type": "Feature", "properties": { "county": "Logan", "GMcoordinates 1": -82.0219387, "GMcoordinates 2": 37.9758979, "name": "Chapmanville Regional High School", "address": "200 Vance Street", "city": "Chapmanville", "joinedAddress": "200 Vance Street , Chapmanville, WV, 25508", "zip": 25508 }, "geometry": { "type": "Point", "coordinates": [ -82.0219387, 37.9758979 ] } },
{ "type": "Feature", "properties": { "county": "Putnam", "GMcoordinates 1": -82.0221768, "GMcoordinates 2": 38.4346469, "name": "Conner Street Elementary", "address": "445 Conner Street", "city": "Hurricane", "joinedAddress": "445 Conner Street , Hurricane, WV, 25526", "zip": 25526 }, "geometry": { "type": "Point", "coordinates": [ -82.0221768, 38.4346469 ] } },
{ "type": "Feature", "properties": { "county": "Logan", "GMcoordinates 1": -82.0248849, "GMcoordinates 2": 37.9764615, "name": "Chapmanville Middle School", "address": "300 Vance St.", "city": "Chapmanville", "joinedAddress": "300 Vance St. , Chapmanville, WV, 25508", "zip": 25508 }, "geometry": { "type": "Point", "coordinates": [ -82.024884899999989, 37.9764615 ] } },
{ "type": "Feature", "properties": { "county": "Putnam", "GMcoordinates 1": -82.0307521, "GMcoordinates 2": 38.4241492, "name": "Hurricane Town Elementary", "address": "300 Harbour Lane", "city": "Hurricane", "joinedAddress": "300 Harbour Lane , Hurricane, WV, 25526", "zip": 25526 }, "geometry": { "type": "Point", "coordinates": [ -82.0307521, 38.4241492 ] } },
{ "type": "Feature", "properties": { "county": "Logan", "GMcoordinates 1": -82.0462652, "GMcoordinates 2": 37.847937, "name": "Verdunville Elementary School", "address": "Drawer J Hill Drive", "city": "Verdunville", "joinedAddress": "Drawer J Hill Drive, Verdunville, WV, 25649", "zip": 25649 }, "geometry": { "type": "Point", "coordinates": [ -82.0462652, 37.847937 ] } },
{ "type": "Feature", "properties": { "county": "Cabell", "GMcoordinates 1": -82.0618, "GMcoordinates 2": 38.4194869, "name": "Culloden Elementary School", "address": "2100 U.s. Route 60", "city": "Culloden", "joinedAddress": "2100 U.s. Route 60 , Culloden, WV, 25510", "zip": 25510 }, "geometry": { "type": "Point", "coordinates": [ -82.0618, 38.4194869 ] } },
{ "type": "Feature", "properties": { "county": "Mason", "GMcoordinates 1": -82.073088, "GMcoordinates 2": 38.567419, "name": "Hannan High School", "address": "15638 Ashton Upland Road", "city": "Ashton", "joinedAddress": "15638 Ashton Upland Road , Ashton, WV, 25503", "zip": 25503 }, "geometry": { "type": "Point", "coordinates": [ -82.073088, 38.567419 ] } },
{ "type": "Feature", "properties": { "county": "Mingo", "GMcoordinates 1": -82.0846054, "GMcoordinates 2": 37.6418862, "name": "Mingo Central Comprehensive High", "address": "1000 King Coal Highway", "city": "Delbarton", "joinedAddress": "1000 King Coal Highway, Delbarton, WV, 25670", "zip": 25670 }, "geometry": { "type": "Point", "coordinates": [ -82.0846054, 37.641886199999988 ] } },
{ "type": "Feature", "properties": { "county": "Lincoln", "GMcoordinates 1": -82.1009486, "GMcoordinates 2": 38.2788761, "name": "Hamlin Pk-8", "address": "8130 Court Ave", "city": "Hamlin", "joinedAddress": "8130 Court Ave , Hamlin, WV, 25523", "zip": 25523 }, "geometry": { "type": "Point", "coordinates": [ -82.1009486, 38.2788761 ] } },
{ "type": "Feature", "properties": { "county": "Lincoln", "GMcoordinates 1": -82.1163273, "GMcoordinates 2": 38.27583, "name": "Lincoln County High School", "address": "81 Lincoln Panther Way", "city": "Hamlin", "joinedAddress": "81 Lincoln Panther Way , Hamlin, WV, 25523", "zip": 25523 }, "geometry": { "type": "Point", "coordinates": [ -82.1163273, 38.27583 ] } },
{ "type": "Feature", "properties": { "county": "Mason", "GMcoordinates 1": -82.116977, "GMcoordinates 2": 38.879924, "name": "Mason County School For Success", "address": "758 Scenic Drive", "city": "Point Pleasant", "joinedAddress": "758 Scenic Drive, Point Pleasant, WV, 25550", "zip": 25550 }, "geometry": { "type": "Point", "coordinates": [ -82.116977, 38.879924 ] } },
{ "type": "Feature", "properties": { "county": "Mason", "GMcoordinates 1": -82.120972, "GMcoordinates 2": 38.881619, "name": "Mason County Career Center", "address": "281 Scenic Drive", "city": "Point Pleasant", "joinedAddress": "281 Scenic Drive , Point Pleasant, WV, 25550", "zip": 25550 }, "geometry": { "type": "Point", "coordinates": [ -82.120972, 38.881619 ] } },
{ "type": "Feature", "properties": { "county": "Mason", "GMcoordinates 1": -82.1275871, "GMcoordinates 2": 38.87296, "name": "Pt. Pleasant Intermediate", "address": "1 Walden Way", "city": "Pt. Pleasant", "joinedAddress": "1 Walden Way , Pt. Pleasant, WV, 0", "zip": 0 }, "geometry": { "type": "Point", "coordinates": [ -82.1275871, 38.87296 ] } },
{ "type": "Feature", "properties": { "county": "Mason", "GMcoordinates 1": -82.130189, "GMcoordinates 2": 38.863892, "name": "Pt. Pleasant Primary", "address": "2200 Lincoln Ave", "city": "Pt. Pleasant", "joinedAddress": "2200 Lincoln Ave , Pt. Pleasant, WV, 0", "zip": 0 }, "geometry": { "type": "Point", "coordinates": [ -82.130189, 38.863892 ] } },
{ "type": "Feature", "properties": { "county": "Cabell", "GMcoordinates 1": -82.13456, "GMcoordinates 2": 38.4368405, "name": "Milton Elementary School", "address": "1201 Pike St.", "city": "Milton", "joinedAddress": "1201 Pike St. , Milton, WV, 25541", "zip": 25541 }, "geometry": { "type": "Point", "coordinates": [ -82.13456, 38.4368405 ] } },
{ "type": "Feature", "properties": { "county": "Lincoln", "GMcoordinates 1": -82.1350139, "GMcoordinates 2": 38.0370312, "name": "Harts Pk-8", "address": "1246 Mcclellan Highway", "city": "Harts", "joinedAddress": "1246 Mcclellan Highway , Harts, WV, 25524", "zip": 25524 }, "geometry": { "type": "Point", "coordinates": [ -82.1350139, 38.0370312 ] } },
{ "type": "Feature", "properties": { "county": "Logan", "GMcoordinates 1": -82.1386833, "GMcoordinates 2": 37.9779553, "name": "Hugh Dingess Elementary School", "address": "Rt. 1 Box 607", "city": "Harts", "joinedAddress": "Rt. 1 Box 607, Harts, WV, 25524", "zip": 25524 }, "geometry": { "type": "Point", "coordinates": [ -82.1386833, 37.9779553 ] } },
{ "type": "Feature", "properties": { "county": "Mason", "GMcoordinates 1": -82.1464398, "GMcoordinates 2": 38.6190022, "name": "Ashton Elementary School", "address": "4250 Ashton-Upland Road", "city": "Ashton", "joinedAddress": "4250 Ashton-Upland Road , Ashton, WV, 25503", "zip": 25503 }, "geometry": { "type": "Point", "coordinates": [ -82.14643980000001, 38.6190022 ] } },
{ "type": "Feature", "properties": { "county": "Mingo", "GMcoordinates 1": -82.1504999, "GMcoordinates 2": 37.8544721, "name": "Dingess Elementary School", "address": "101 Schoolhouse Rd.", "city": "Dingess", "joinedAddress": "101 Schoolhouse Rd. , Dingess, WV, 25671", "zip": 25671 }, "geometry": { "type": "Point", "coordinates": [ -82.1504999, 37.8544721 ] } },
{ "type": "Feature", "properties": { "county": "Cabell", "GMcoordinates 1": -82.15105, "GMcoordinates 2": 38.4373515, "name": "Milton Middle School", "address": "1 Panther Trail", "city": "Milton", "joinedAddress": "1 Panther Trail , Milton, WV, 25541", "zip": 25541 }, "geometry": { "type": "Point", "coordinates": [ -82.15105, 38.4373515 ] } },
{ "type": "Feature", "properties": { "county": "Mingo", "GMcoordinates 1": -82.1559516, "GMcoordinates 2": 37.6220631, "name": "Matewan Elementary School", "address": "100 Chambers Street", "city": "Matewan", "joinedAddress": "100 Chambers Street , Matewan, WV, 25678", "zip": 25678 }, "geometry": { "type": "Point", "coordinates": [ -82.1559516, 37.6220631 ] } },
{ "type": "Feature", "properties": { "county": "Mingo", "GMcoordinates 1": -82.1566, "GMcoordinates 2": 37.7339, "name": "Mingo County Extended Learning Center", "address": "Rt. 2 Box 52-A", "city": "Delbarton", "joinedAddress": "Rt. 2 Box 52-A, Delbarton, WV, 25670", "zip": 25670 }, "geometry": { "type": "Point", "coordinates": [ -82.1566, 37.7339 ] } },
{ "type": "Feature", "properties": { "county": "Mingo", "GMcoordinates 1": -82.1769834, "GMcoordinates 2": 37.6769637, "name": "Mingo Career & Technical Center", "address": "Route 2 Box 52 A", "city": "Delbarton", "joinedAddress": "Route 2 Box 52 A , Delbarton, WV, 25670", "zip": 25670 }, "geometry": { "type": "Point", "coordinates": [ -82.1769834, 37.6769637 ] } },
{ "type": "Feature", "properties": { "county": "Mingo", "GMcoordinates 1": -82.1769834, "GMcoordinates 2": 37.6769637, "name": "Burch PK-8", "address": "Rt. 2 Box 52-1a", "city": "Delbarton", "joinedAddress": "Rt. 2 Box 52-1a , Delbarton, WV, 25670", "zip": 25670 }, "geometry": { "type": "Point", "coordinates": [ -82.1769834, 37.6769637 ] } },
{ "type": "Feature", "properties": { "county": "Lincoln", "GMcoordinates 1": -82.1898441, "GMcoordinates 2": 38.2487168, "name": "Guyan Valley Middle", "address": "5312 McClellan Hwy", "city": "Branchland", "joinedAddress": "5312 McClellan Hwy, Branchland, WV, 25506", "zip": 25506 }, "geometry": { "type": "Point", "coordinates": [ -82.1898441, 38.2487168 ] } },
{ "type": "Feature", "properties": { "county": "Lincoln", "GMcoordinates 1": -82.1902243, "GMcoordinates 2": 38.1213733, "name": "Ranger Elementary", "address": "59 Vanatters Creek", "city": "Ranger", "joinedAddress": "59 Vanatters Creek , Ranger, WV, 25557", "zip": 25557 }, "geometry": { "type": "Point", "coordinates": [ -82.1902243, 38.121373299999988 ] } },
{ "type": "Feature", "properties": { "county": "Lincoln", "GMcoordinates 1": -82.196229, "GMcoordinates 2": 38.293877, "name": "West Hamlin Elementary", "address": "114 Dairy Road", "city": "West Hamlin", "joinedAddress": "114 Dairy Road, West Hamlin, WV, 25571", "zip": 25571 }, "geometry": { "type": "Point", "coordinates": [ -82.196229, 38.293877 ] } },
{ "type": "Feature", "properties": { "county": "Mason", "GMcoordinates 1": -82.1973117, "GMcoordinates 2": 38.7677634, "name": "Beale Elementary School", "address": "12897 Huntington Road", "city": "Gallipolis Ferry", "joinedAddress": "12897 Huntington Road, Gallipolis Ferry, WV, 25515", "zip": 25515 }, "geometry": { "type": "Point", "coordinates": [ -82.1973117, 38.7677634 ] } },
{ "type": "Feature", "properties": { "county": "Cabell", "GMcoordinates 1": -82.2087448, "GMcoordinates 2": 38.4287096, "name": "Cabell Midland High School", "address": "2300 Us Route 60 East", "city": "Ona", "joinedAddress": "2300 Us Route 60 East , Ona, WV, 25545", "zip": 25545 }, "geometry": { "type": "Point", "coordinates": [ -82.2087448, 38.4287096 ] } },
{ "type": "Feature", "properties": { "county": "Cabell", "GMcoordinates 1": -82.2158561, "GMcoordinates 2": 38.4255835, "name": "Ona Elementary School", "address": "2701 Elementary Dr", "city": "Ona", "joinedAddress": "2701 Elementary Dr , Ona, WV, 25545", "zip": 25545 }, "geometry": { "type": "Point", "coordinates": [ -82.2158561, 38.425583499999988 ] } },
{ "type": "Feature", "properties": { "county": "Cabell", "GMcoordinates 1": -82.2210593, "GMcoordinates 2": 38.3208479, "name": "Salt Rock Elementary School", "address": "5570 Madison Creek Rd", "city": "Salt Rock", "joinedAddress": "5570 Madison Creek Rd , Salt Rock, WV, 25559", "zip": 25559 }, "geometry": { "type": "Point", "coordinates": [ -82.2210593, 38.3208479 ] } },
{ "type": "Feature", "properties": { "county": "Cabell", "GMcoordinates 1": -82.254293, "GMcoordinates 2": 38.419074, "name": "Nichols Elementary School", "address": "3505 Erwin Road", "city": "Barboursville", "joinedAddress": "3505 Erwin Road , Barboursville, WV, 25504", "zip": 25504 }, "geometry": { "type": "Point", "coordinates": [ -82.254293, 38.419074 ] } },
{ "type": "Feature", "properties": { "county": "Mingo", "GMcoordinates 1": -82.2724733, "GMcoordinates 2": 37.6772854, "name": "Williamson High School", "address": "801 Alderson Street", "city": "Williamson", "joinedAddress": "801 Alderson Street , Williamson, WV, 25661", "zip": 25661 }, "geometry": { "type": "Point", "coordinates": [ -82.2724733, 37.6772854 ] } },
{ "type": "Feature", "properties": { "county": "Mingo", "GMcoordinates 1": -82.2726283, "GMcoordinates 2": 37.6764793, "name": "Williamson PK-8", "address": "Alderson Street", "city": "Williamson", "joinedAddress": "Alderson Street , Williamson, WV, 25661", "zip": 25661 }, "geometry": { "type": "Point", "coordinates": [ -82.2726283, 37.6764793 ] } },
{ "type": "Feature", "properties": { "county": "Cabell", "GMcoordinates 1": -82.286162, "GMcoordinates 2": 38.379285, "name": "Martha Elementary School", "address": "3067 Martha Road", "city": "Barboursville", "joinedAddress": "3067 Martha Road , Barboursville, WV, 25504", "zip": 25504 }, "geometry": { "type": "Point", "coordinates": [ -82.286162, 38.379285 ] } },
{ "type": "Feature", "properties": { "county": "Mingo", "GMcoordinates 1": -82.2882846, "GMcoordinates 2": 37.6694947, "name": "Riverside Elementary School", "address": "5 Parkway Drive", "city": "Williamson", "joinedAddress": "5 Parkway Drive , Williamson, WV, 25661", "zip": 25661 }, "geometry": { "type": "Point", "coordinates": [ -82.2882846, 37.6694947 ] } },
{ "type": "Feature", "properties": { "county": "Mingo", "GMcoordinates 1": -82.289684, "GMcoordinates 2": 37.797841, "name": "Lenore K-8 School", "address": "#1 Ranger Drive", "city": "Williamson", "joinedAddress": "#1 Ranger Drive , Williamson, WV, 25661", "zip": 25661 }, "geometry": { "type": "Point", "coordinates": [ -82.289684, 37.797841 ] } },
{ "type": "Feature", "properties": { "county": "Cabell", "GMcoordinates 1": -82.294518, "GMcoordinates 2": 38.403337, "name": "Barboursville Middle School", "address": "1400 Central Ave", "city": "Barboursville", "joinedAddress": "1400 Central Ave , Barboursville, WV, 25504", "zip": 25504 }, "geometry": { "type": "Point", "coordinates": [ -82.294518, 38.403337 ] } },
{ "type": "Feature", "properties": { "county": "Cabell", "GMcoordinates 1": -82.296893, "GMcoordinates 2": 38.407411, "name": "Village Of Barboursville Elementary Sch", "address": "718 Central Ave", "city": "Barboursville", "joinedAddress": "718 Central Ave , Barboursville, WV, 25504", "zip": 25504 }, "geometry": { "type": "Point", "coordinates": [ -82.296893, 38.407411 ] } },
{ "type": "Feature", "properties": { "county": "Cabell", "GMcoordinates 1": -82.3064075, "GMcoordinates 2": 38.4773629, "name": "Cox Landing Elementary School", "address": "6358 Cox Lane", "city": "Lesage", "joinedAddress": "6358 Cox Lane , Lesage, WV, 25537", "zip": 25537 }, "geometry": { "type": "Point", "coordinates": [ -82.3064075, 38.4773629 ] } },
{ "type": "Feature", "properties": { "county": "Cabell", "GMcoordinates 1": -82.33237, "GMcoordinates 2": 38.385708, "name": "Davis Creek Elementary School", "address": "6330 Davis Creek Rd", "city": "Barboursville", "joinedAddress": "6330 Davis Creek Rd , Barboursville, WV, 25504", "zip": 25504 }, "geometry": { "type": "Point", "coordinates": [ -82.33237, 38.385708 ] } },
{ "type": "Feature", "properties": { "county": "Mingo", "GMcoordinates 1": -82.3380208, "GMcoordinates 2": 37.799081, "name": "Tug Valley High School", "address": "555 Panther Drive", "city": "Williamson", "joinedAddress": "555 Panther Drive , Williamson, WV, 25661", "zip": 25661 }, "geometry": { "type": "Point", "coordinates": [ -82.3380208, 37.799081 ] } },
{ "type": "Feature", "properties": { "county": "Cabell", "GMcoordinates 1": -82.364213, "GMcoordinates 2": 38.41531, "name": "Altizer Elementary School", "address": "250 Third Street, Altizer", "city": "Huntington", "joinedAddress": "250 Third Street, Altizer , Huntington, WV, 25705", "zip": 25705 }, "geometry": { "type": "Point", "coordinates": [ -82.364213, 38.41531 ] } },
{ "type": "Feature", "properties": { "county": "Cabell", "GMcoordinates 1": -82.3722257, "GMcoordinates 2": 38.4032754, "name": "Cabell County Career Technology Center", "address": "1035 Norway Ave", "city": "Huntington", "joinedAddress": "1035 Norway Ave , Huntington, WV, 25705", "zip": 25705 }, "geometry": { "type": "Point", "coordinates": [ -82.3722257, 38.4032754 ] } },
{ "type": "Feature", "properties": { "county": "Cabell", "GMcoordinates 1": -82.3722257, "GMcoordinates 2": 38.4032754, "name": "Cabell County Career Technology Center", "address": "1035 Norway Ave", "city": "Huntington", "joinedAddress": "1035 Norway Ave , Huntington, WV, 25705", "zip": 25705 }, "geometry": { "type": "Point", "coordinates": [ -82.3722257, 38.4032754 ] } },
{ "type": "Feature", "properties": { "county": "Cabell", "GMcoordinates 1": -82.377216, "GMcoordinates 2": 38.382375, "name": "Hite Saunders Elementary School", "address": "3708 Green Valley Road", "city": "Huntington", "joinedAddress": "3708 Green Valley Road , Huntington, WV, 25701", "zip": 25701 }, "geometry": { "type": "Point", "coordinates": [ -82.377216, 38.382375 ] } },
{ "type": "Feature", "properties": { "county": "Wayne", "GMcoordinates 1": -82.383404, "GMcoordinates 2": 38.162494, "name": "East Lynn Elementary School", "address": "19594 East Lynn Road", "city": "East Lynn", "joinedAddress": "19594 East Lynn Road, East Lynn, WV, 25512", "zip": 25512 }, "geometry": { "type": "Point", "coordinates": [ -82.383404, 38.162494 ] } },
{ "type": "Feature", "properties": { "county": "Cabell", "GMcoordinates 1": -82.3871531, "GMcoordinates 2": 38.4031628, "name": "Geneva Kent Elementary School", "address": "68 Holley Avenue", "city": "Huntington", "joinedAddress": "68 Holley Avenue , Huntington, WV, 25705", "zip": 25705 }, "geometry": { "type": "Point", "coordinates": [ -82.3871531, 38.4031628 ] } },
{ "type": "Feature", "properties": { "county": "Cabell", "GMcoordinates 1": -82.3871531, "GMcoordinates 2": 38.4031628, "name": "Explorer Academy", "address": "68 Holley Ave", "city": "Huntington", "joinedAddress": "68 Holley Ave, Huntington, WV, 25705", "zip": 25705 }, "geometry": { "type": "Point", "coordinates": [ -82.3871531, 38.4031628 ] } },
{ "type": "Feature", "properties": { "county": "Cabell", "GMcoordinates 1": -82.391392, "GMcoordinates 2": 38.407296, "name": "Beverly Hills Middle School", "address": "2901 Saltwell Rd", "city": "Huntington", "joinedAddress": "2901 Saltwell Rd , Huntington, WV, 25705", "zip": 25705 }, "geometry": { "type": "Point", "coordinates": [ -82.391392, 38.407296 ] } },
{ "type": "Feature", "properties": { "county": "Cabell", "GMcoordinates 1": -82.391392, "GMcoordinates 2": 38.407296, "name": "Huntington East Middle School", "address": "2901 Saltwell Rd", "city": "Huntington", "joinedAddress": "2901 Saltwell Rd, Huntington, WV, 25705", "zip": 25705 }, "geometry": { "type": "Point", "coordinates": [ -82.391392, 38.407296 ] } },
{ "type": "Feature", "properties": { "county": "Cabell", "GMcoordinates 1": -82.3985743, "GMcoordinates 2": 38.3936242, "name": "Huntington High School", "address": "1 Highlander Way", "city": "Huntington", "joinedAddress": "1 Highlander Way , Huntington, WV, 25701", "zip": 25701 }, "geometry": { "type": "Point", "coordinates": [ -82.3985743, 38.3936242 ] } },
{ "type": "Feature", "properties": { "county": "Cabell", "GMcoordinates 1": -82.399326, "GMcoordinates 2": 38.413612, "name": "Peyton Elementary School", "address": "199 Rotary Rd", "city": "Huntington", "joinedAddress": "199 Rotary Rd , Huntington, WV, 25705", "zip": 25705 }, "geometry": { "type": "Point", "coordinates": [ -82.399326, 38.413612 ] } },
{ "type": "Feature", "properties": { "county": "Cabell", "GMcoordinates 1": -82.4020243, "GMcoordinates 2": 38.4266393, "name": "Alternative School", "address": "2800 5th Ave", "city": "Huntington", "joinedAddress": "2800 5th Ave , Huntington, WV, 25702", "zip": 25702 }, "geometry": { "type": "Point", "coordinates": [ -82.4020243, 38.4266393 ] } },
{ "type": "Feature", "properties": { "county": "Cabell", "GMcoordinates 1": -82.4091638, "GMcoordinates 2": 38.4291151, "name": "Enslow Middle School", "address": "2613 Collis Ave", "city": "Huntington", "joinedAddress": "2613 Collis Ave , Huntington, WV, 25702", "zip": 25702 }, "geometry": { "type": "Point", "coordinates": [ -82.4091638, 38.4291151 ] } },
{ "type": "Feature", "properties": { "county": "Cabell", "GMcoordinates 1": -82.4111944, "GMcoordinates 2": 38.4300068, "name": "Highlawn Elementary School", "address": "2549 1st Avenue", "city": "Huntington", "joinedAddress": "2549 1st Avenue , Huntington, WV, 25703", "zip": 25703 }, "geometry": { "type": "Point", "coordinates": [ -82.4111944, 38.4300068 ] } },
{ "type": "Feature", "properties": { "county": "Cabell", "GMcoordinates 1": -82.4203404, "GMcoordinates 2": 38.4121254, "name": "Spring Hill Elementary School", "address": "1901 Hall Avenue", "city": "Huntington", "joinedAddress": "1901 Hall Avenue , Huntington, WV, 25701", "zip": 25701 }, "geometry": { "type": "Point", "coordinates": [ -82.4203404, 38.4121254 ] } },
{ "type": "Feature", "properties": { "county": "Cabell", "GMcoordinates 1": -82.4272414, "GMcoordinates 2": 38.4040281, "name": "Meadows Elementary School", "address": "1601 Washington Blvd", "city": "Huntington", "joinedAddress": "1601 Washington Blvd , Huntington, WV, 25701", "zip": 25701 }, "geometry": { "type": "Point", "coordinates": [ -82.4272414, 38.4040281 ] } },
{ "type": "Feature", "properties": { "county": "Wayne", "GMcoordinates 1": -82.429165, "GMcoordinates 2": 38.254347, "name": "Wayne Elementary School", "address": "80 McGinnis Drive", "city": "Wayne", "joinedAddress": "80 McGinnis Drive, Wayne, WV, 25570", "zip": 25570 }, "geometry": { "type": "Point", "coordinates": [ -82.429165, 38.254347 ] } },
{ "type": "Feature", "properties": { "county": "Wayne", "GMcoordinates 1": -82.4331737, "GMcoordinates 2": 38.0271515, "name": "Dunlow Elementary School", "address": "32800 Route 152", "city": "Dunlow", "joinedAddress": "32800 Route 152, Dunlow, WV, 25511", "zip": 25511 }, "geometry": { "type": "Point", "coordinates": [ -82.4331737, 38.0271515 ] } },
{ "type": "Feature", "properties": { "county": "Wayne", "GMcoordinates 1": -82.434381, "GMcoordinates 2": 38.246841, "name": "Wayne High School", "address": "100 Pioneer Road", "city": "Wayne", "joinedAddress": "100 Pioneer Road , Wayne, WV, 25570", "zip": 25570 }, "geometry": { "type": "Point", "coordinates": [ -82.434381, 38.246841 ] } },
{ "type": "Feature", "properties": { "county": "Wayne", "GMcoordinates 1": -82.434968, "GMcoordinates 2": 38.245076, "name": "Wayne Middle School", "address": "200 Pioneer Road", "city": "Wayne", "joinedAddress": "200 Pioneer Road , Wayne, WV, 25570", "zip": 25570 }, "geometry": { "type": "Point", "coordinates": [ -82.434968, 38.245076 ] } },
{ "type": "Feature", "properties": { "county": "Wayne", "GMcoordinates 1": -82.448047, "GMcoordinates 2": 37.906487, "name": "Crum Pre K-8", "address": "150 Crum Road", "city": "Crum", "joinedAddress": "150 Crum Road, Crum, WV, 25669", "zip": 25669 }, "geometry": { "type": "Point", "coordinates": [ -82.448047, 37.906487 ] } },
{ "type": "Feature", "properties": { "county": "Wayne", "GMcoordinates 1": -82.4494931, "GMcoordinates 2": 38.3233683, "name": "Lavalette Elementary School", "address": "P.o. Box 380", "city": "Lavalette", "joinedAddress": "P.o. Box 380 , Lavalette, WV, 25535", "zip": 25535 }, "geometry": { "type": "Point", "coordinates": [ -82.4494931, 38.3233683 ] } },
{ "type": "Feature", "properties": { "county": "Cabell", "GMcoordinates 1": -82.4528441, "GMcoordinates 2": 38.4108658, "name": "Southside Elementary", "address": "200 Tenth Avenue", "city": "Huntington", "joinedAddress": "200 Tenth Avenue , Huntington, WV, 25701", "zip": 25701 }, "geometry": { "type": "Point", "coordinates": [ -82.4528441, 38.4108658 ] } },
{ "type": "Feature", "properties": { "county": "Cabell", "GMcoordinates 1": -82.4528779, "GMcoordinates 2": 38.4111169, "name": "Huntington Middle School", "address": "925 Third Street", "city": "Huntington", "joinedAddress": "925 Third Street , Huntington, WV, 25701", "zip": 25701 }, "geometry": { "type": "Point", "coordinates": [ -82.4528779, 38.4111169 ] } },
{ "type": "Feature", "properties": { "county": "Wayne", "GMcoordinates 1": -82.4629166, "GMcoordinates 2": 38.1273332, "name": "Genoa Elementary School", "address": "21269 Rt 152 Road", "city": "Genoa", "joinedAddress": "21269 Rt 152 Road , Genoa, WV, 25517", "zip": 25517 }, "geometry": { "type": "Point", "coordinates": [ -82.4629166, 38.1273332 ] } },
{ "type": "Feature", "properties": { "county": "Cabell", "GMcoordinates 1": -82.4907581, "GMcoordinates 2": 38.4104518, "name": "Central City Elementary School", "address": "2100 Washington Ave", "city": "Huntington", "joinedAddress": "2100 Washington Ave , Huntington, WV, 25704", "zip": 25704 }, "geometry": { "type": "Point", "coordinates": [ -82.4907581, 38.4104518 ] } },
{ "type": "Feature", "properties": { "county": "Wayne", "GMcoordinates 1": -82.5002319, "GMcoordinates 2": 38.0008076, "name": "Tolsia High School", "address": "#1 Rebel Drive", "city": "Fort Gay", "joinedAddress": "#1 Rebel Drive , Fort Gay, WV, 25514", "zip": 25514 }, "geometry": { "type": "Point", "coordinates": [ -82.5002319, 38.0008076 ] } },
{ "type": "Feature", "properties": { "county": "Wayne", "GMcoordinates 1": -82.511036, "GMcoordinates 2": 38.399288, "name": "Vinson Middle School", "address": "3851 Piedmont Road", "city": "Huntington", "joinedAddress": "3851 Piedmont Road , Huntington, WV, 25704", "zip": 25704 }, "geometry": { "type": "Point", "coordinates": [ -82.511036, 38.399288 ] } },
{ "type": "Feature", "properties": { "county": "Wayne", "GMcoordinates 1": -82.513109, "GMcoordinates 2": 38.348204, "name": "Buffalo Middle School", "address": "298 Buffalo Creek Road", "city": "Kenova", "joinedAddress": "298 Buffalo Creek Road , Kenova, WV, 25530", "zip": 25530 }, "geometry": { "type": "Point", "coordinates": [ -82.513109, 38.348204 ] } },
{ "type": "Feature", "properties": { "county": "Wayne", "GMcoordinates 1": -82.515923, "GMcoordinates 2": 38.349362, "name": "Buffalo Elementary School", "address": "331 Buffalo Creek Road", "city": "Kenova", "joinedAddress": "331 Buffalo Creek Road , Kenova, WV, 25530", "zip": 25530 }, "geometry": { "type": "Point", "coordinates": [ -82.515923, 38.349362 ] } },
{ "type": "Feature", "properties": { "county": "Wayne", "GMcoordinates 1": -82.517957, "GMcoordinates 2": 38.397215, "name": "Kellogg Elementary School", "address": "4415 Piedmont Road", "city": "Huntington", "joinedAddress": "4415 Piedmont Road , Huntington, WV, 25704", "zip": 25704 }, "geometry": { "type": "Point", "coordinates": [ -82.517957, 38.397215 ] } },
{ "type": "Feature", "properties": { "county": "Wayne", "GMcoordinates 1": -82.527402, "GMcoordinates 2": 38.378617, "name": "Spring Valley High School", "address": "#1 Timberwolf Drive", "city": "Huntington", "joinedAddress": "#1 Timberwolf Drive , Huntington, WV, 25704", "zip": 25704 }, "geometry": { "type": "Point", "coordinates": [ -82.527402, 38.378617 ] } },
{ "type": "Feature", "properties": { "county": "Wayne", "GMcoordinates 1": -82.569, "GMcoordinates 2": 38.3995854, "name": "Ceredo-Kenova Elementary", "address": "1 Wonders Lane", "city": "Kenova", "joinedAddress": "1 Wonders Lane, Kenova, WV, 25530", "zip": 25530 }, "geometry": { "type": "Point", "coordinates": [ -82.569, 38.3995854 ] } },
{ "type": "Feature", "properties": { "county": "Wayne", "GMcoordinates 1": -82.5872969, "GMcoordinates 2": 38.4186202, "name": "Ceredo-Kenova Middle School", "address": "P.o. Box 705 4th St. West And High St", "city": "Ceredo", "joinedAddress": "P.o. Box 705 4th St. West And High St, Ceredo, WV, 25507", "zip": 25507 }, "geometry": { "type": "Point", "coordinates": [ -82.5872969, 38.4186202 ] } },
{ "type": "Feature", "properties": { "county": "Wayne", "GMcoordinates 1": -82.5917223, "GMcoordinates 2": 38.1145716, "name": "Fort Gay PreK - 8", "address": "#1 Viking Drive", "city": "Fort Gay", "joinedAddress": "#1 Viking Drive, Fort Gay, WV, 25514", "zip": 25514 }, "geometry": { "type": "Point", "coordinates": [ -82.5917223, 38.1145716 ] } },
{ "type": "Feature", "properties": { "county": "Wayne", "GMcoordinates 1": -82.5986676, "GMcoordinates 2": 38.2404138, "name": "Prichard Elementary School", "address": "500 Prichard Rd.", "city": "Prichard", "joinedAddress": "500 Prichard Rd., Prichard, WV, 25555", "zip": 25555 }, "geometry": { "type": "Point", "coordinates": [ -82.5986676, 38.2404138 ] } },
{ "type": "Feature", "properties": { "county": "Brooke", "GMcoordinates 1": -80.589667, "GMcoordinates 2": 40.303363, "name": "Brooke High School", "address": "R.d. 3, Box 610 Cross Creek Road", "city": "Wellsburg", "joinedAddress": "R.d. 3, Box 610 Cross Creek Road, Wellsburg, WV, 26070", "zip": 26070 }, "geometry": { "type": "Point", "coordinates": [ -80.589667, 40.303363 ] } },
{ "type": "Feature", "properties": { "county": "Cabell", "GMcoordinates 1": -82.384677, "GMcoordinates 2": 38.427145, "name": "Guyandotte Elementary School", "address": "607 5th Ave Guy", "city": "Huntington", "joinedAddress": "607 5th Ave Guy , Huntington, WV, 25702", "zip": 25702 }, "geometry": { "type": "Point", "coordinates": [ -82.384677, 38.427145 ] } },
{ "type": "Feature", "properties": { "county": "Fayette", "GMcoordinates 1": -80.962697, "GMcoordinates 2": 38.066225, "name": "Divide Elementary", "address": "Po Box 180", "city": "Lookout", "joinedAddress": "Po Box 180 , Lookout, WV, 25868", "zip": 25868 }, "geometry": { "type": "Point", "coordinates": [ -80.962697, 38.066225 ] } },
{ "type": "Feature", "properties": { "county": "Fayette", "GMcoordinates 1": -81.095786, "GMcoordinates 2": 38.133521, "name": "Ansted Middle", "address": "Po Box 766", "city": "Ansted", "joinedAddress": "Po Box 766 , Ansted, WV, 25812", "zip": 25812 }, "geometry": { "type": "Point", "coordinates": [ -81.095786, 38.133521 ] } },
{ "type": "Feature", "properties": { "county": "Fayette", "GMcoordinates 1": -81.308956, "GMcoordinates 2": 38.181713, "name": "Valley Elementary", "address": "Po Box 215", "city": "Smithers", "joinedAddress": "Po Box 215 , Smithers, WV, 25186", "zip": 25186 }, "geometry": { "type": "Point", "coordinates": [ -81.308956, 38.181713 ] } },
{ "type": "Feature", "properties": { "county": "Fayette", "GMcoordinates 1": -81.195924, "GMcoordinates 2": 38.167667, "name": "Gauley Bridge Elementary", "address": "Po Box 519", "city": "Gauley Bridge", "joinedAddress": "Po Box 519 , Gauley Bridge, WV, 25085", "zip": 25085 }, "geometry": { "type": "Point", "coordinates": [ -81.195924, 38.167667 ] } },
{ "type": "Feature", "properties": { "county": "Fayette", "GMcoordinates 1": -81.310423, "GMcoordinates 2": 38.181632, "name": "Valley High School", "address": "Po Box 459 Greyhound Lane", "city": "Smithers", "joinedAddress": "Po Box 459 Greyhound Lane, Smithers, WV, 25186", "zip": 25186 }, "geometry": { "type": "Point", "coordinates": [ -81.310423, 38.181632 ] } },
{ "type": "Feature", "properties": { "county": "Hampshire", "GMcoordinates 1": -78.699255, "GMcoordinates 2": 39.325798, "name": "Hampshire Senior High School", "address": "Hc 63, Box 1970", "city": "Romney", "joinedAddress": "Hc 63, Box 1970 , Romney, WV, 26757", "zip": 26757 }, "geometry": { "type": "Point", "coordinates": [ -78.699255, 39.325798 ] } },
{ "type": "Feature", "properties": { "county": "Hampshire", "GMcoordinates 1": -78.439181, "GMcoordinates 2": 39.303844, "name": "Capon Bridge Middle School", "address": "Hc 71, Box 1001", "city": "Capon Bridge", "joinedAddress": "Hc 71, Box 1001 , Capon Bridge, WV, 26711", "zip": 26711 }, "geometry": { "type": "Point", "coordinates": [ -78.439181, 39.303844 ] } },
{ "type": "Feature", "properties": { "county": "Hampshire", "GMcoordinates 1": -78.696958, "GMcoordinates 2": 39.449837, "name": "Springfield-Green Spring Elementary School", "address": "Hc 65 Box 9000", "city": "Springfield", "joinedAddress": "Hc 65 Box 9000 , Springfield, WV, 26763", "zip": 26763 }, "geometry": { "type": "Point", "coordinates": [ -78.696958, 39.449837 ] } },
{ "type": "Feature", "properties": { "county": "Hampshire", "GMcoordinates 1": -78.700738, "GMcoordinates 2": 39.325967, "name": "Hampshire County Career Training Center", "address": "Hc 63 Box 1970", "city": "Romney", "joinedAddress": "Hc 63 Box 1970 , Romney, WV, 26757", "zip": 26757 }, "geometry": { "type": "Point", "coordinates": [ -78.700738, 39.325967 ] } },
{ "type": "Feature", "properties": { "county": "Hampshire", "GMcoordinates 1": -78.437178, "GMcoordinates 2": 39.303167, "name": "Capon Bridge Elementary School", "address": "Hc 71, Box 1000", "city": "Capon Bridge", "joinedAddress": "Hc 71, Box 1000 , Capon Bridge, WV, 26711", "zip": 26711 }, "geometry": { "type": "Point", "coordinates": [ -78.437178, 39.303167 ] } },
{ "type": "Feature", "properties": { "county": "Hampshire", "GMcoordinates 1": -78.597783, "GMcoordinates 2": 39.44882, "name": "John J. Cornwell", "address": "Hc 60, Box 72", "city": "Levels", "joinedAddress": "Hc 60, Box 72 , Levels, WV, 25431", "zip": 25431 }, "geometry": { "type": "Point", "coordinates": [ -78.597783, 39.44882 ] } },
{ "type": "Feature", "properties": { "county": "Harrison", "GMcoordinates 1": -80.355184, "GMcoordinates 2": 39.310086, "name": "United High School", "address": null, "city": null, "joinedAddress": null, "zip": null }, "geometry": { "type": "Point", "coordinates": [ -80.355184, 39.310086 ] } },
{ "type": "Feature", "properties": { "county": "Harrison", "GMcoordinates 1": -80.387567, "GMcoordinates 2": 39.225117, "name": "Pressley Ridge School", "address": "Rr 5 Box 697", "city": "Clarksburg", "joinedAddress": "Rr 5 Box 697 , Clarksburg, WV, 26301", "zip": 26301 }, "geometry": { "type": "Point", "coordinates": [ -80.387567, 39.225117 ] } },
{ "type": "Feature", "properties": { "county": "Harrison", "GMcoordinates 1": -80.310838, "GMcoordinates 2": 39.380632, "name": "Lincoln High School", "address": "Rr 1 Box 300", "city": "Shinnston", "joinedAddress": "Rr 1 Box 300 , Shinnston, WV, 26431", "zip": 26431 }, "geometry": { "type": "Point", "coordinates": [ -80.310838, 39.380632 ] } },
{ "type": "Feature", "properties": { "county": "Harrison", "GMcoordinates 1": -80.577632, "GMcoordinates 2": 39.285657, "name": "Salem Elementary", "address": "Rr 1 Box 10a", "city": "Salem", "joinedAddress": "Rr 1 Box 10a , Salem, WV, 26426", "zip": 26426 }, "geometry": { "type": "Point", "coordinates": [ -80.577632, 39.285657 ] } },
{ "type": "Feature", "properties": { "county": "Kanawha", "GMcoordinates 1": -81.632591, "GMcoordinates 2": 38.349825, "name": "Bonham Elementary School", "address": "Route 1, Box 425a", "city": "Charleston", "joinedAddress": "Route 1, Box 425a , Charleston, WV, 25312", "zip": 25312 }, "geometry": { "type": "Point", "coordinates": [ -81.632591, 38.349825 ] } },
{ "type": "Feature", "properties": { "county": "Kanawha", "GMcoordinates 1": -81.448614, "GMcoordinates 2": 38.149002, "name": "Sharon Dawes Elementary School", "address": "P O Box 149", "city": "Miami", "joinedAddress": "P O Box 149 , Miami, WV, 25134", "zip": 25134 }, "geometry": { "type": "Point", "coordinates": [ -81.448614, 38.149002 ] } },
{ "type": "Feature", "properties": { "county": "Kanawha", "GMcoordinates 1": -81.338841, "GMcoordinates 2": 38.490337, "name": "Clendenin Elementary School", "address": "P O Box 462", "city": "Clendenin", "joinedAddress": "P O Box 462 , Clendenin, WV, 25045", "zip": 25045 }, "geometry": { "type": "Point", "coordinates": [ -81.338841, 38.490337 ] } },
{ "type": "Feature", "properties": { "county": "Kanawha", "GMcoordinates 1": -81.719859, "GMcoordinates 2": 38.321782, "name": "Ruthlawn Elementary School", "address": "Rt 8 Box 428", "city": "So Charleston", "joinedAddress": "Rt 8 Box 428 , So Charleston, WV, 25309", "zip": 25309 }, "geometry": { "type": "Point", "coordinates": [ -81.719859, 38.321782 ] } },
{ "type": "Feature", "properties": { "county": "Kanawha", "GMcoordinates 1": -81.451847, "GMcoordinates 2": 38.214861, "name": "East Bank Middle School", "address": "Po Box 897", "city": "East Bank", "joinedAddress": "Po Box 897 , East Bank, WV, 25067", "zip": 25067 }, "geometry": { "type": "Point", "coordinates": [ -81.451847, 38.214861 ] } },
{ "type": "Feature", "properties": { "county": "Kanawha", "GMcoordinates 1": -81.390086, "GMcoordinates 2": 38.208615, "name": "Pratt Elementary School", "address": "Center And Stark Street", "city": "Pratt", "joinedAddress": "Center And Stark Street , Pratt, WV, 25162", "zip": 25162 }, "geometry": { "type": "Point", "coordinates": [ -81.390086, 38.208615 ] } },
{ "type": "Feature", "properties": { "county": "Logan", "GMcoordinates 1": -81.989558, "GMcoordinates 2": 37.769531, "name": "Omar Elementary", "address": "Route 44 Box 590", "city": "Omar", "joinedAddress": "Route 44 Box 590, Omar, WV, 25638", "zip": 25638 }, "geometry": { "type": "Point", "coordinates": [ -81.989558, 37.769531 ] } },
{ "type": "Feature", "properties": { "county": "Logan", "GMcoordinates 1": -82.020623, "GMcoordinates 2": 37.968276, "name": "Chapmanville East Elementary School", "address": "P.o. Box 340", "city": "Chapmanville", "joinedAddress": "P.o. Box 340 , Chapmanville, WV, 25508", "zip": 25508 }, "geometry": { "type": "Point", "coordinates": [ -82.020623, 37.968276 ] } },
{ "type": "Feature", "properties": { "county": "Logan", "GMcoordinates 1": -81.855177, "GMcoordinates 2": 37.727286, "name": "Man Middle School", "address": "Box 390", "city": "Mallory", "joinedAddress": "Box 390 , Mallory, WV, 25634", "zip": 25634 }, "geometry": { "type": "Point", "coordinates": [ -81.855177, 37.727286 ] } },
{ "type": "Feature", "properties": { "county": "Logan", "GMcoordinates 1": -82.023915, "GMcoordinates 2": 37.977531, "name": "West Chapmanville Elementary School", "address": "100 Vance Street Box 310", "city": "Chapmanville", "joinedAddress": "100 Vance Street Box 310, Chapmanville, WV, 25508", "zip": 25508 }, "geometry": { "type": "Point", "coordinates": [ -82.023915, 37.977531 ] } },
{ "type": "Feature", "properties": { "county": "Logan", "GMcoordinates 1": -82.076662, "GMcoordinates 2": 37.827732, "name": "Holden Central Elementary School", "address": "Box M", "city": "Holden", "joinedAddress": "Box M , Holden, WV, 25625", "zip": 25625 }, "geometry": { "type": "Point", "coordinates": [ -82.076662, 37.827732 ] } },
{ "type": "Feature", "properties": { "county": "Mason", "GMcoordinates 1": -82.036691, "GMcoordinates 2": 39.009977, "name": "Wahama High School", "address": "P.o. Box 348", "city": "Mason", "joinedAddress": "P.o. Box 348 , Mason, WV, 25260", "zip": 25260 }, "geometry": { "type": "Point", "coordinates": [ -82.036691, 39.009977 ] } },
{ "type": "Feature", "properties": { "county": "Mason", "GMcoordinates 1": -82.06466, "GMcoordinates 2": 38.845651, "name": "Roosevelt Elementary School", "address": "Route 2 Box 841", "city": "Point Pleasant", "joinedAddress": "Route 2 Box 841 , Point Pleasant, WV, 25550", "zip": 25550 }, "geometry": { "type": "Point", "coordinates": [ -82.06466, 38.845651 ] } },
{ "type": "Feature", "properties": { "county": "Mason", "GMcoordinates 1": -82.121164, "GMcoordinates 2": 38.880598, "name": "Point Pleasant Junior\/Senior High School", "address": "Rt. 1 Box 4", "city": "Point Pleasant", "joinedAddress": "Rt. 1 Box 4 , Point Pleasant, WV, 25550", "zip": 25550 }, "geometry": { "type": "Point", "coordinates": [ -82.121164, 38.880598 ] } },
{ "type": "Feature", "properties": { "county": "McDowell", "GMcoordinates 1": -81.497206, "GMcoordinates 2": 37.42023, "name": "Kimball Elementary School", "address": "Box 308 Route #52", "city": "Kimball", "joinedAddress": "Box 308 Route #52, Kimball, WV, 24853", "zip": 24853 }, "geometry": { "type": "Point", "coordinates": [ -81.497206, 37.42023 ] } },
{ "type": "Feature", "properties": { "county": "Mercer", "GMcoordinates 1": -81.053749, "GMcoordinates 2": 37.388952, "name": "Melrose Elementary School", "address": "Hc 71, Box 257", "city": "Princeton", "joinedAddress": "Hc 71, Box 257 , Princeton, WV, 24740", "zip": 24740 }, "geometry": { "type": "Point", "coordinates": [ -81.053749, 37.388952 ] } },
{ "type": "Feature", "properties": { "county": "Mercer", "GMcoordinates 1": -80.997865, "GMcoordinates 2": 37.484844, "name": "Sun Valley Elementary School", "address": "Po Box 10", "city": "Lerona", "joinedAddress": "Po Box 10 , Lerona, WV, 25971", "zip": 25971 }, "geometry": { "type": "Point", "coordinates": [ -80.997865, 37.484844 ] } },
{ "type": "Feature", "properties": { "county": "Mercer", "GMcoordinates 1": -81.253364, "GMcoordinates 2": 37.282614, "name": "Brushfork Elementary School", "address": "Rt 4 Box 93", "city": "Bluefield", "joinedAddress": "Rt 4 Box 93 , Bluefield, WV, 24701", "zip": 24701 }, "geometry": { "type": "Point", "coordinates": [ -81.253364, 37.282614 ] } },
{ "type": "Feature", "properties": { "county": "Mercer", "GMcoordinates 1": -81.1479, "GMcoordinates 2": 37.307375, "name": "Ceres Elementary School", "address": "Rt 2 Box 189", "city": "Bluefield", "joinedAddress": "Rt 2 Box 189 , Bluefield, WV, 24701", "zip": 24701 }, "geometry": { "type": "Point", "coordinates": [ -81.1479, 37.307375 ] } },
{ "type": "Feature", "properties": { "county": "Mercer", "GMcoordinates 1": -81.258946, "GMcoordinates 2": 37.313644, "name": "Bluewell Elementary School", "address": "Rt 4 Box 480", "city": "Bluefield", "joinedAddress": "Rt 4 Box 480 , Bluefield, WV, 24701", "zip": 24701 }, "geometry": { "type": "Point", "coordinates": [ -81.258946, 37.313644 ] } },
{ "type": "Feature", "properties": { "county": "Mingo", "GMcoordinates 1": -82.177596, "GMcoordinates 2": 37.676909, "name": "Burch Pk-6", "address": "Rt. 3 Box 4-B", "city": "Delbarton", "joinedAddress": "Rt. 3 Box 4-B , Delbarton, WV, 25670", "zip": 25670 }, "geometry": { "type": "Point", "coordinates": [ -82.177596, 37.676909 ] } },
{ "type": "Feature", "properties": { "county": "Mingo", "GMcoordinates 1": -82.153303, "GMcoordinates 2": 37.624276, "name": "Matewan PK-8", "address": "200 Tiger Lane", "city": "Matewan", "joinedAddress": "200 Tiger Lane , Matewan, WV, 25678", "zip": 25678 }, "geometry": { "type": "Point", "coordinates": [ -82.153303, 37.624276 ] } },
{ "type": "Feature", "properties": { "county": "Mingo", "GMcoordinates 1": -82.398915, "GMcoordinates 2": 37.809898, "name": "Kermit Area School (K-8)", "address": "Blue Devil Lane", "city": "Kermit", "joinedAddress": "Blue Devil Lane , Kermit, WV, 25674", "zip": 25674 }, "geometry": { "type": "Point", "coordinates": [ -82.398915, 37.809898 ] } },
{ "type": "Feature", "properties": { "county": "Mingo", "GMcoordinates 1": -82.17922, "GMcoordinates 2": 37.677113, "name": "Burch High School", "address": "Rt. 2 Box 521-A", "city": "Delbarton", "joinedAddress": "Rt. 2 Box 521-A , Delbarton, WV, 25670", "zip": 25670 }, "geometry": { "type": "Point", "coordinates": [ -82.17922, 37.677113 ] } },
{ "type": "Feature", "properties": { "county": "Putnam", "GMcoordinates 1": -81.776492, "GMcoordinates 2": 38.581035, "name": "Confidence Elementary", "address": "Hc Box 163", "city": "Red House", "joinedAddress": "Hc Box 163 , Red House, WV, 25168", "zip": 25168 }, "geometry": { "type": "Point", "coordinates": [ -81.776492, 38.581035 ] } },
{ "type": "Feature", "properties": { "county": "Putnam", "GMcoordinates 1": -81.98705, "GMcoordinates 2": 38.609875, "name": "Buffalo Elementary School", "address": "Rt. 2, Box 93", "city": "Buffalo", "joinedAddress": "Rt. 2, Box 93 , Buffalo, WV, 25033", "zip": 25033 }, "geometry": { "type": "Point", "coordinates": [ -81.98705, 38.609875 ] } },
{ "type": "Feature", "properties": { "county": "Putnam", "GMcoordinates 1": -81.816387, "GMcoordinates 2": 38.458611, "name": "Poca High School", "address": "Rt. 1, Box 5b", "city": "Poca", "joinedAddress": "Rt. 1, Box 5b , Poca, WV, 25159", "zip": 25159 }, "geometry": { "type": "Point", "coordinates": [ -81.816387, 38.458611 ] } },
{ "type": "Feature", "properties": { "county": "Raleigh", "GMcoordinates 1": -81.306356, "GMcoordinates 2": 37.729611, "name": "Lester Elementary", "address": "Box 727", "city": "Lester", "joinedAddress": "Box 727 , Lester, WV, 25865", "zip": 25865 }, "geometry": { "type": "Point", "coordinates": [ -81.306356, 37.729611 ] } },
{ "type": "Feature", "properties": { "county": "Raleigh", "GMcoordinates 1": -81.108597, "GMcoordinates 2": 37.63018, "name": "Ghent Elementary", "address": "Po Box 350", "city": "Ghent", "joinedAddress": "Po Box 350 , Ghent, WV, 25843", "zip": 25843 }, "geometry": { "type": "Point", "coordinates": [ -81.108597, 37.63018 ] } },
{ "type": "Feature", "properties": { "county": "Raleigh", "GMcoordinates 1": -81.110119, "GMcoordinates 2": 37.744572, "name": "Daniels Elementary", "address": "Box 689 4-H Lake Road", "city": "Daniels", "joinedAddress": "Box 689 4-H Lake Road, Daniels, WV, 25832", "zip": 25832 }, "geometry": { "type": "Point", "coordinates": [ -81.110119, 37.744572 ] } },
{ "type": "Feature", "properties": { "county": "Raleigh", "GMcoordinates 1": -81.220799, "GMcoordinates 2": 37.695212, "name": "Coal City Elementary", "address": "Po Box 1240", "city": "Coal City", "joinedAddress": "Po Box 1240 , Coal City, WV, 25823", "zip": 25823 }, "geometry": { "type": "Point", "coordinates": [ -81.220799, 37.695212 ] } },
{ "type": "Feature", "properties": { "county": "Raleigh", "GMcoordinates 1": -81.206215, "GMcoordinates 2": 37.771499, "name": "Mabscott Elementary", "address": "Box 174", "city": "Mabscott", "joinedAddress": "Box 174 , Mabscott, WV, 25871", "zip": 25871 }, "geometry": { "type": "Point", "coordinates": [ -81.206215, 37.771499 ] } },
{ "type": "Feature", "properties": { "county": "Wyoming", "GMcoordinates 1": -81.624273, "GMcoordinates 2": 37.687564, "name": "Berlin Mckinney Elementary School", "address": "Hc 65 Box 402 405 Cook Parkway", "city": "Oceana", "joinedAddress": "Hc 65 Box 402 405 Cook Parkway, Oceana, WV, 24870", "zip": 24870 }, "geometry": { "type": "Point", "coordinates": [ -81.624273, 37.687564 ] } },
{ "type": "Feature", "properties": { "county": "Wyoming", "GMcoordinates 1": -81.522414, "GMcoordinates 2": 37.588257, "name": "Wyoming County Career & Technical Center", "address": "Hcr 72 Box 200, 1201 Bear Hole Road", "city": "Pineville", "joinedAddress": "Hcr 72 Box 200, 1201 Bear Hole Road, Pineville, WV, 24874", "zip": 24874 }, "geometry": { "type": "Point", "coordinates": [ -81.522414, 37.588257 ] } },
{ "type": "Feature", "properties": { "county": "Wyoming", "GMcoordinates 1": -81.625173, "GMcoordinates 2": 37.686598, "name": "Oceana Middle School", "address": "Hc 65 Box 403 309 Cook Parkway", "city": "Oceana", "joinedAddress": "Hc 65 Box 403 309 Cook Parkway, Oceana, WV, 24870", "zip": 24870 }, "geometry": { "type": "Point", "coordinates": [ -81.625173, 37.686598 ] } },
{ "type": "Feature", "properties": { "county": "Wyoming", "GMcoordinates 1": -81.662983, "GMcoordinates 2": 37.656468, "name": "Westside High School", "address": "Hc 65 Box 275 122 Renegade Road", "city": "Clear Fork", "joinedAddress": "Hc 65 Box 275 122 Renegade Road, Clear Fork, WV, 24822", "zip": 24822 }, "geometry": { "type": "Point", "coordinates": [ -81.662983, 37.656468 ] } }
]
}
