{
"type": "FeatureCollection",
"crs": { "type": "name", "properties": { "name": "urn:ogc:def:crs:OGC:1.3:CRS84" } },
"features": [
{ "type": "Feature", "properties": { "county": "Cabell", "GMcoordinates 1": -82.2158561, "GMcoordinates 2": 38.4255835, "name": "Ona Elementary School", "address": "2701 Elementary Dr", "city": "Ona", "joinedAddress": "2701 Elementary Dr , Ona, WV, 25545", "zip": 25545 }, "geometry": { "type": "Point", "coordinates": [ -82.2158561, 38.425583499999988 ] } },
{ "type": "Feature", "properties": { "county": "Cabell", "GMcoordinates 1": -82.2210593, "GMcoordinates 2": 38.3208479, "name": "Salt Rock Elementary School", "address": "5570 Madison Creek Rd", "city": "Salt Rock", "joinedAddress": "5570 Madison Creek Rd , Salt Rock, WV, 25559", "zip": 25559 }, "geometry": { "type": "Point", "coordinates": [ -82.2210593, 38.3208479 ] } },
{ "type": "Feature", "properties": { "county": "Cabell", "GMcoordinates 1": -82.4907581, "GMcoordinates 2": 38.4104518, "name": "Central City Elementary School", "address": "2100 Washington Ave", "city": "Huntington", "joinedAddress": "2100 Washington Ave , Huntington, WV, 25704", "zip": 25704 }, "geometry": { "type": "Point", "coordinates": [ -82.4907581, 38.4104518 ] } },
{ "type": "Feature", "properties": { "county": "Cabell", "GMcoordinates 1": -82.254293, "GMcoordinates 2": 38.419074, "name": "Nichols Elementary School", "address": "3505 Erwin Road", "city": "Barboursville", "joinedAddress": "3505 Erwin Road , Barboursville, WV, 25504", "zip": 25504 }, "geometry": { "type": "Point", "coordinates": [ -82.254293, 38.419074 ] } },
{ "type": "Feature", "properties": { "county": "Cabell", "GMcoordinates 1": -82.286162, "GMcoordinates 2": 38.379285, "name": "Martha Elementary School", "address": "3067 Martha Road", "city": "Barboursville", "joinedAddress": "3067 Martha Road , Barboursville, WV, 25504", "zip": 25504 }, "geometry": { "type": "Point", "coordinates": [ -82.286162, 38.379285 ] } },
{ "type": "Feature", "properties": { "county": "Cabell", "GMcoordinates 1": -82.294518, "GMcoordinates 2": 38.403337, "name": "Barboursville Middle School", "address": "1400 Central Ave", "city": "Barboursville", "joinedAddress": "1400 Central Ave , Barboursville, WV, 25504", "zip": 25504 }, "geometry": { "type": "Point", "coordinates": [ -82.294518, 38.403337 ] } },
{ "type": "Feature", "properties": { "county": "Cabell", "GMcoordinates 1": -82.296893, "GMcoordinates 2": 38.407411, "name": "Village Of Barboursville Elementary Sch", "address": "718 Central Ave", "city": "Barboursville", "joinedAddress": "718 Central Ave , Barboursville, WV, 25504", "zip": 25504 }, "geometry": { "type": "Point", "coordinates": [ -82.296893, 38.407411 ] } },
{ "type": "Feature", "properties": { "county": "Cabell", "GMcoordinates 1": -82.3064075, "GMcoordinates 2": 38.4773629, "name": "Cox Landing Elementary School", "address": "6358 Cox Lane", "city": "Lesage", "joinedAddress": "6358 Cox Lane , Lesage, WV, 25537", "zip": 25537 }, "geometry": { "type": "Point", "coordinates": [ -82.3064075, 38.4773629 ] } },
{ "type": "Feature", "properties": { "county": "Cabell", "GMcoordinates 1": -82.33237, "GMcoordinates 2": 38.385708, "name": "Davis Creek Elementary School", "address": "6330 Davis Creek Rd", "city": "Barboursville", "joinedAddress": "6330 Davis Creek Rd , Barboursville, WV, 25504", "zip": 25504 }, "geometry": { "type": "Point", "coordinates": [ -82.33237, 38.385708 ] } },
{ "type": "Feature", "properties": { "county": "Cabell", "GMcoordinates 1": -82.0618, "GMcoordinates 2": 38.4194869, "name": "Culloden Elementary School", "address": "2100 U.s. Route 60", "city": "Culloden", "joinedAddress": "2100 U.s. Route 60 , Culloden, WV, 25510", "zip": 25510 }, "geometry": { "type": "Point", "coordinates": [ -82.0618, 38.4194869 ] } },
{ "type": "Feature", "properties": { "county": "Cabell", "GMcoordinates 1": -82.364213, "GMcoordinates 2": 38.41531, "name": "Altizer Elementary School", "address": "250 Third Street, Altizer", "city": "Huntington", "joinedAddress": "250 Third Street, Altizer , Huntington, WV, 25705", "zip": 25705 }, "geometry": { "type": "Point", "coordinates": [ -82.364213, 38.41531 ] } },
{ "type": "Feature", "properties": { "county": "Cabell", "GMcoordinates 1": -82.384677, "GMcoordinates 2": 38.427145, "name": "Guyandotte Elementary School", "address": "607 5th Ave Guy", "city": "Huntington", "joinedAddress": "607 5th Ave Guy , Huntington, WV, 25702", "zip": 25702 }, "geometry": { "type": "Point", "coordinates": [ -82.384677, 38.427145 ] } },
{ "type": "Feature", "properties": { "county": "Cabell", "GMcoordinates 1": -82.3722257, "GMcoordinates 2": 38.4032754, "name": "Cabell County Career Technology Center", "address": "1035 Norway Ave", "city": "Huntington", "joinedAddress": "1035 Norway Ave , Huntington, WV, 25705", "zip": 25705 }, "geometry": { "type": "Point", "coordinates": [ -82.3722257, 38.4032754 ] } },
{ "type": "Feature", "properties": { "county": "Cabell", "GMcoordinates 1": -82.3722257, "GMcoordinates 2": 38.4032754, "name": "Cabell County Career Technology Center", "address": "1035 Norway Ave", "city": "Huntington", "joinedAddress": "1035 Norway Ave , Huntington, WV, 25705", "zip": 25705 }, "geometry": { "type": "Point", "coordinates": [ -82.3722257, 38.4032754 ] } },
{ "type": "Feature", "properties": { "county": "Cabell", "GMcoordinates 1": -82.377216, "GMcoordinates 2": 38.382375, "name": "Hite Saunders Elementary School", "address": "3708 Green Valley Road", "city": "Huntington", "joinedAddress": "3708 Green Valley Road , Huntington, WV, 25701", "zip": 25701 }, "geometry": { "type": "Point", "coordinates": [ -82.377216, 38.382375 ] } },
{ "type": "Feature", "properties": { "county": "Cabell", "GMcoordinates 1": -82.3871531, "GMcoordinates 2": 38.4031628, "name": "Geneva Kent Elementary School", "address": "68 Holley Avenue", "city": "Huntington", "joinedAddress": "68 Holley Avenue , Huntington, WV, 25705", "zip": 25705 }, "geometry": { "type": "Point", "coordinates": [ -82.3871531, 38.4031628 ] } },
{ "type": "Feature", "properties": { "county": "Cabell", "GMcoordinates 1": -82.3871531, "GMcoordinates 2": 38.4031628, "name": "Explorer Academy", "address": "68 Holley Ave", "city": "Huntington", "joinedAddress": "68 Holley Ave, Huntington, WV, 25705", "zip": 25705 }, "geometry": { "type": "Point", "coordinates": [ -82.3871531, 38.4031628 ] } },
{ "type": "Feature", "properties": { "county": "Cabell", "GMcoordinates 1": -82.391392, "GMcoordinates 2": 38.407296, "name": "Beverly Hills Middle School", "address": "2901 Saltwell Rd", "city": "Huntington", "joinedAddress": "2901 Saltwell Rd , Huntington, WV, 25705", "zip": 25705 }, "geometry": { "type": "Point", "coordinates": [ -82.391392, 38.407296 ] } },
{ "type": "Feature", "properties": { "county": "Cabell", "GMcoordinates 1": -82.391392, "GMcoordinates 2": 38.407296, "name": "Huntington East Middle School", "address": "2901 Saltwell Rd", "city": "Huntington", "joinedAddress": "2901 Saltwell Rd, Huntington, WV, 25705", "zip": 25705 }, "geometry": { "type": "Point", "coordinates": [ -82.391392, 38.407296 ] } },
{ "type": "Feature", "properties": { "county": "Cabell", "GMcoordinates 1": -82.13456, "GMcoordinates 2": 38.4368405, "name": "Milton Elementary School", "address": "1201 Pike St.", "city": "Milton", "joinedAddress": "1201 Pike St. , Milton, WV, 25541", "zip": 25541 }, "geometry": { "type": "Point", "coordinates": [ -82.13456, 38.4368405 ] } },
{ "type": "Feature", "properties": { "county": "Cabell", "GMcoordinates 1": -82.3985743, "GMcoordinates 2": 38.3936242, "name": "Huntington High School", "address": "1 Highlander Way", "city": "Huntington", "joinedAddress": "1 Highlander Way , Huntington, WV, 25701", "zip": 25701 }, "geometry": { "type": "Point", "coordinates": [ -82.3985743, 38.3936242 ] } },
{ "type": "Feature", "properties": { "county": "Cabell", "GMcoordinates 1": -82.399326, "GMcoordinates 2": 38.413612, "name": "Peyton Elementary School", "address": "199 Rotary Rd", "city": "Huntington", "joinedAddress": "199 Rotary Rd , Huntington, WV, 25705", "zip": 25705 }, "geometry": { "type": "Point", "coordinates": [ -82.399326, 38.413612 ] } },
{ "type": "Feature", "properties": { "county": "Cabell", "GMcoordinates 1": -82.4020243, "GMcoordinates 2": 38.4266393, "name": "Alternative School", "address": "2800 5th Ave", "city": "Huntington", "joinedAddress": "2800 5th Ave , Huntington, WV, 25702", "zip": 25702 }, "geometry": { "type": "Point", "coordinates": [ -82.4020243, 38.4266393 ] } },
{ "type": "Feature", "properties": { "county": "Cabell", "GMcoordinates 1": -82.4091638, "GMcoordinates 2": 38.4291151, "name": "Enslow Middle School", "address": "2613 Collis Ave", "city": "Huntington", "joinedAddress": "2613 Collis Ave , Huntington, WV, 25702", "zip": 25702 }, "geometry": { "type": "Point", "coordinates": [ -82.4091638, 38.4291151 ] } },
{ "type": "Feature", "properties": { "county": "Cabell", "GMcoordinates 1": -82.4111944, "GMcoordinates 2": 38.4300068, "name": "Highlawn Elementary School", "address": "2549 1st Avenue", "city": "Huntington", "joinedAddress": "2549 1st Avenue , Huntington, WV, 25703", "zip": 25703 }, "geometry": { "type": "Point", "coordinates": [ -82.4111944, 38.4300068 ] } },
{ "type": "Feature", "properties": { "county": "Cabell", "GMcoordinates 1": -82.15105, "GMcoordinates 2": 38.4373515, "name": "Milton Middle School", "address": "1 Panther Trail", "city": "Milton", "joinedAddress": "1 Panther Trail , Milton, WV, 25541", "zip": 25541 }, "geometry": { "type": "Point", "coordinates": [ -82.15105, 38.4373515 ] } },
{ "type": "Feature", "properties": { "county": "Cabell", "GMcoordinates 1": -82.4203404, "GMcoordinates 2": 38.4121254, "name": "Spring Hill Elementary School", "address": "1901 Hall Avenue", "city": "Huntington", "joinedAddress": "1901 Hall Avenue , Huntington, WV, 25701", "zip": 25701 }, "geometry": { "type": "Point", "coordinates": [ -82.4203404, 38.4121254 ] } },
{ "type": "Feature", "properties": { "county": "Cabell", "GMcoordinates 1": -82.4272414, "GMcoordinates 2": 38.4040281, "name": "Meadows Elementary School", "address": "1601 Washington Blvd", "city": "Huntington", "joinedAddress": "1601 Washington Blvd , Huntington, WV, 25701", "zip": 25701 }, "geometry": { "type": "Point", "coordinates": [ -82.4272414, 38.4040281 ] } },
{ "type": "Feature", "properties": { "county": "Cabell", "GMcoordinates 1": -82.4528441, "GMcoordinates 2": 38.4108658, "name": "Southside Elementary", "address": "200 Tenth Avenue", "city": "Huntington", "joinedAddress": "200 Tenth Avenue , Huntington, WV, 25701", "zip": 25701 }, "geometry": { "type": "Point", "coordinates": [ -82.4528441, 38.4108658 ] } },
{ "type": "Feature", "properties": { "county": "Cabell", "GMcoordinates 1": -82.2087448, "GMcoordinates 2": 38.4287096, "name": "Cabell Midland High School", "address": "2300 Us Route 60 East", "city": "Ona", "joinedAddress": "2300 Us Route 60 East , Ona, WV, 25545", "zip": 25545 }, "geometry": { "type": "Point", "coordinates": [ -82.2087448, 38.4287096 ] } },
{ "type": "Feature", "properties": { "county": "Cabell", "GMcoordinates 1": -82.4528779, "GMcoordinates 2": 38.4111169, "name": "Huntington Middle School", "address": "925 Third Street", "city": "Huntington", "joinedAddress": "925 Third Street , Huntington, WV, 25701", "zip": 25701 }, "geometry": { "type": "Point", "coordinates": [ -82.4528779, 38.4111169 ] } }
]
}
